$GNRMC,034603.00,V,,,,,,,070120,,,N*65
$GNVTG,,,,,,,,,N*2E
$GNGGA,034603.00,,,,,0,04,10.25,,,,,,*78
$GNGSA,A,1,20,10,25,32,,,,,,,,,10.76,10.25,3.29*15
$GNGSA,A,1,,,,,,,,,,,,,10.76,10.25,3.29*10
$GPGSV,2,1,07,10,70,307,38,12,44,094,29,15,,,22,20,70,182,32*4A
$GPGSV,2,2,07,25,41,153,30,31,13,234,20,32,37,308,32*40
$GLGSV,1,1,01,,,,31*66
$GNGLL,,,,,034603.00,V,N*56
$GNRMC,034604.00,V,,,,,,,070120,,,N*62
$GNVTG,,,,,,,,,N*2E
$GNGGA,034604.00,,,,,0,04,10.25,,,,,,*7F
$GNGSA,A,1,20,10,25,32,,,,,,,,,10.76,10.25,3.29*15
$GNGSA,A,1,,,,,,,,,,,,,10.76,10.25,3.29*10
$GPGSV,2,1,07,10,70,307,38,12,44,094,28,15,,,23,20,70,182,33*4B
$GPGSV,2,2,07,25,41,153,29,31,13,234,19,32,37,308,32*42
$GLGSV,1,1,01,,,,31*66
$GNGLL,,,,,034604.00,V,N*51
$GNRMC,034605.00,A,3113.89102,N,12125.41696,E,0.084,,070120,,,A*69
$GNVTG,,T,,M,0.084,N,0.156,K,A*33
$GNGGA,034605.00,3113.89102,N,12125.41696,E,1,04,10.25,34.2,M,9.7,M,,*74
$GNGSA,A,3,20,10,25,32,,,,,,,,,10.76,10.25,3.29*17
$GNGSA,A,3,,,,,,,,,,,,,10.76,10.25,3.29*12
$GPGSV,2,1,07,10,70,307,38,12,44,094,27,15,,,25,20,70,182,33*42
$GPGSV,2,2,07,25,41,153,29,31,13,234,18,32,37,308,32*43
$GLGSV,1,1,01,,,,31*66
$GNGLL,3113.89102,N,12125.41696,E,034605.00,A,A*78
$GNRMC,034606.00,A,3113.89196,N,12125.41917,E,0.126,,070120,,,A*68
$GNVTG,,T,,M,0.126,N,0.233,K,A*3A
$GNGGA,034606.00,3113.89196,N,12125.41917,E,1,04,10.25,31.6,M,9.7,M,,*7D
$GNGSA,A,3,20,10,25,32,,,,,,,,,10.76,10.25,3.29*17
$GNGSA,A,3,,,,,,,,,,,,,10.76,10.25,3.29*12
$GPGSV,2,1,07,10,70,307,38,12,44,094,25,15,,,24,20,70,182,33*41
$GPGSV,2,2,07,25,41,153,30,31,13,234,17,32,37,308,32*44
$GLGSV,1,1,01,,,,31*66
$GNGLL,3113.89196,N,12125.41917,E,034606.00,A,A*70
$GNRMC,034607.00,A,3113.89236,N,12125.41977,E,0.250,,070120,,,A*64
$GNVTG,,T,,M,0.250,N,0.462,K,A*3A
$GNGGA,034607.00,3113.89236,N,12125.41977,E,1,04,10.25,30.9,M,9.7,M,,*7D
$GNGSA,A,3,20,10,25,32,,,,,,,,,10.76,10.25,3.29*17
$GNGSA,A,3,,,,,,,,,,,,,10.76,10.25,3.29*12
$GPGSV,2,1,07,10,70,307,38,12,44,094,23,15,,,24,20,70,182,32*46
$GPGSV,2,2,07,25,41,153,29,31,13,234,15,32,37,308,32*4E
$GLGSV,1,1,01,,,,30*67
$GNGLL,3113.89236,N,12125.41977,E,034607.00,A,A*7E
$GNRMC,034608.00,A,3113.89269,N,12125.42005,E,0.596,,070120,,,A*63
$GNVTG,,T,,M,0.596,N,1.103,K,A*34
$GNGGA,034608.00,3113.89269,N,12125.42005,E,1,04,10.24,30.9,M,9.7,M,,*76
$GNGSA,A,3,20,10,25,32,,,,,,,,,10.76,10.24,3.29*16
$GNGSA,A,3,,,,,,,,,,,,,10.76,10.24,3.29*13
$GPGSV,2,1,07,10,70,307,38,12,44,094,23,15,,,23,20,70,182,33*40
$GPGSV,2,2,07,25,41,153,30,31,13,234,15,32,37,308,27*42
$GLGSV,1,1,01,,,,30*67
$GNGLL,3113.89269,N,12125.42005,E,034608.00,A,A*74
$GNRMC,034609.00,A,3113.89293,N,12125.42051,E,0.249,,070120,,,A*63
$GNVTG,,T,,M,0.249,N,0.460,K,A*30
$GNGGA,034609.00,3113.89293,N,12125.42051,E,1,04,10.24,29.9,M,9.7,M,,*7B
$GNGSA,A,3,20,10,25,32,,,,,,,,,10.76,10.24,3.29*16
$GNGSA,A,3,,,,,,,,,,,,,10.76,10.24,3.29*13
$GPGSV,2,1,07,10,70,307,35,12,44,094,20,15,,,23,20,70,182,34*49
$GPGSV,2,2,07,25,41,153,30,31,13,234,,32,37,308,28*49
$GLGSV,1,1,01,,,,30*67
$GNGLL,3113.89293,N,12125.42051,E,034609.00,A,A*71
$GNRMC,034610.00,A,3113.89371,N,12125.42288,E,1.008,,070120,,,A*66
$GNVTG,,T,,M,1.008,N,1.866,K,A*3D
$GNGGA,034610.00,3113.89371,N,12125.42288,E,1,04,10.24,28.0,M,9.7,M,,*70
$GNGSA,A,3,20,10,25,32,,,,,,,,,10.76,10.24,3.29*16
$GNGSA,A,3,,,,,,,,,,,,,10.76,10.24,3.29*13
$GPGSV,2,1,07,10,70,307,31,12,44,094,30,15,,,22,20,70,182,29*41
$GPGSV,2,2,07,25,41,153,30,31,13,234,,32,37,308,27*46
$GLGSV,1,1,01,,,,33*64
$GNGLL,3113.89371,N,12125.42288,E,034610.00,A,A*72
$GNRMC,034611.00,A,3113.89490,N,12125.42574,E,0.383,,070120,,,A*6A
$GNVTG,,T,,M,0.383,N,0.709,K,A*3B
$GNGGA,034611.00,3113.89490,N,12125.42574,E,1,04,10.24,26.1,M,9.7,M,,*72
$GNGSA,A,3,20,10,25,32,,,,,,,,,10.76,10.24,3.29*16
$GNGSA,A,3,,,,,,,,,,,,,10.76,10.24,3.29*13
$GPGSV,2,1,07,10,70,307,31,12,44,094,23,15,,,20,20,70,182,29*41
$GPGSV,2,2,07,25,41,153,34,31,13,234,,32,37,308,26*43
$GLGSV,1,1,01,,,,29*6F
$GNGLL,3113.89490,N,12125.42574,E,034611.00,A,A*7F
$GNRMC,034612.00,A,3113.89435,N,12125.42471,E,1.521,,070120,,,A*6D
$GNVTG,,T,,M,1.521,N,2.818,K,A*39
$GNGGA,034612.00,3113.89435,N,12125.42471,E,1,04,10.24,26.7,M,9.7,M,,*7C
$GNGSA,A,3,20,10,25,32,,,,,,,,,10.76,10.24,3.29*16
$GNGSA,A,3,,,,,,,,,,,,,10.76,10.24,3.29*13
$GPGSV,2,1,07,10,70,307,30,12,44,094,24,15,,,19,20,70,182,30*45
$GPGSV,2,2,07,25,41,153,31,31,13,234,,32,37,308,31*40
$GLGSV,1,1,01,,,,28*6E
$GNGLL,3113.89435,N,12125.42471,E,034612.00,A,A*77
$GNRMC,034613.00,A,3113.89417,N,12125.42465,E,0.840,,070120,,,A*62
$GNVTG,,T,,M,0.840,N,1.555,K,A*35
$GNGGA,034613.00,3113.89417,N,12125.42465,E,1,04,10.24,27.9,M,9.7,M,,*77
$GNGSA,A,3,20,10,25,32,,,,,,,,,10.76,10.24,3.29*16
$GNGSA,A,3,,,,,,,,,,,,,10.76,10.24,3.29*13
$GPGSV,2,1,07,10,70,307,29,12,44,094,24,15,,,19,20,70,182,30*4D
$GPGSV,2,2,07,25,41,153,26,31,13,234,20,32,37,308,26*42
$GLGSV,1,1,01,,,,28*6E
$GNGLL,3113.89417,N,12125.42465,E,034613.00,A,A*73
$GNRMC,034614.00,A,3113.89445,N,12125.42549,E,0.617,,070120,,,A*61
$GNVTG,,T,,M,0.617,N,1.142,K,A*3B
$GNGGA,034614.00,3113.89445,N,12125.42549,E,1,04,10.24,27.6,M,9.7,M,,*77
$GNGSA,A,3,20,10,25,32,,,,,,,,,10.76,10.24,3.29*16
$GNGSA,A,3,,,,,,,,,,,,,10.76,10.24,3.29*13
$GPGSV,2,1,07,10,70,307,20,12,44,094,22,15,,,18,20,70,182,21*43
$GPGSV,2,2,07,25,41,153,31,31,13,234,17,32,37,308,26*40
$GLGSV,1,1,01,,,,26*60
$GNGLL,3113.89445,N,12125.42549,E,034614.00,A,A*7C
$GNRMC,034615.00,A,3113.89367,N,12125.42460,E,0.997,,070120,,,A*6A
$GNVTG,,T,,M,0.997,N,1.847,K,A*30
$GNGGA,034615.00,3113.89367,N,12125.42460,E,1,04,10.24,28.7,M,9.7,M,,*75
$GNGSA,A,3,20,10,25,32,,,,,,,,,10.76,10.24,3.29*16
$GNGSA,A,3,,,,,,,,,,,,,10.76,10.24,3.29*13
$GPGSV,2,1,07,10,70,307,33,12,44,094,21,15,,,20,20,70,182,29*41
$GPGSV,2,2,07,25,41,153,32,31,13,234,15,32,37,308,26*41
$GLGSV,1,1,01,,,,32*65
$GNGLL,3113.89367,N,12125.42460,E,034615.00,A,A*70
$GNRMC,034616.00,A,3113.89395,N,12125.42558,E,0.552,,070120,,,A*6B
$GNVTG,,T,,M,0.552,N,1.023,K,A*3F
$GNGGA,034616.00,3113.89395,N,12125.42558,E,1,04,10.24,29.9,M,9.7,M,,*7E
$GNGSA,A,3,20,10,25,32,,,,,,,,,10.76,10.24,3.29*16
$GNGSA,A,3,,,,,,,,,,,,,10.76,10.24,3.29*13
$GPGSV,2,1,08,10,70,307,28,12,44,094,30,15,,,24,20,70,182,33*4B
$GPGSV,2,2,08,25,41,153,28,31,13,234,13,32,37,308,25,50,46,140,28*78
$GLGSV,1,1,01,,,,32*65
$GNGLL,3113.89395,N,12125.42558,E,034616.00,A,A*74
$GNRMC,034617.00,A,3113.89427,N,12125.42737,E,1.934,,070120,,,A*62
$GNVTG,,T,,M,1.934,N,3.582,K,A*3E
$GNGGA,034617.00,3113.89427,N,12125.42737,E,1,04,10.24,31.0,M,9.7,M,,*7A
$GNGSA,A,3,20,10,25,32,,,,,,,,,10.76,10.24,3.29*16
$GNGSA,A,3,,,,,,,,,,,,,10.76,10.24,3.29*13
$GPGSV,2,1,08,10,70,307,28,12,44,094,29,15,,,22,20,70,182,27*40
$GPGSV,2,2,08,25,41,153,27,31,13,234,14,32,37,308,25,50,46,140,27*7F
$GLGSV,1,1,01,,,,32*65
$GNGLL,3113.89427,N,12125.42737,E,034617.00,A,A*70
$GNRMC,034618.00,A,3113.89351,N,12125.42634,E,0.668,,070120,,,A*6E
$GNVTG,,T,,M,0.668,N,1.237,K,A*32
$GNGGA,034618.00,3113.89351,N,12125.42634,E,1,04,10.24,31.6,M,9.7,M,,*77
$GNGSA,A,3,20,10,25,32,,,,,,,,,10.76,10.24,3.29*16
$GNGSA,A,3,,,,,,,,,,,,,10.76,10.24,3.29*13
$GPGSV,2,1,07,10,70,307,28,12,44,094,25,15,,,22,20,70,182,26*42
$GPGSV,2,2,07,25,41,153,28,31,13,234,12,32,37,308,25*4E
$GLGSV,1,1,01,,,,30*67
$GNGLL,3113.89351,N,12125.42634,E,034618.00,A,A*7B
$GNRMC,034619.00,A,3113.89320,N,12125.42593,E,0.855,,070120,,,A*67
$GNVTG,,T,,M,0.855,N,1.583,K,A*3A
$GNGGA,034619.00,3113.89320,N,12125.42593,E,1,04,10.24,32.5,M,9.7,M,,*7E
$GNGSA,A,3,20,10,25,32,,,,,,,,,10.75,10.24,3.29*15
$GNGSA,A,3,,,,,,,,,,,,,10.75,10.24,3.29*10
$GPGSV,2,1,07,10,70,307,35,12,44,094,25,15,,,20,20,70,182,28*42
$GPGSV,2,2,07,25,41,153,28,31,13,234,15,32,37,308,25*49
$GLGSV,1,1,01,,,,25*63
$GNGLL,3113.89320,N,12125.42593,E,034619.00,A,A*72
$GNRMC,034620.00,A,3113.89235,N,12125.42430,E,1.998,,070120,,,A*61
$GNVTG,,T,,M,1.998,N,3.700,K,A*30
$GNGGA,034620.00,3113.89235,N,12125.42430,E,1,04,10.24,33.6,M,9.7,M,,*7B
$GNGSA,A,3,20,10,25,32,,,,,,,,,10.75,10.24,3.29*15
$GNGSA,A,3,,,,,,,,,,,,,10.75,10.24,3.29*10
$GPGSV,2,1,07,10,70,307,35,12,44,094,24,15,,,21,20,70,182,28*42
$GPGSV,2,2,07,25,41,153,28,31,13,234,17,32,37,308,23*4D
$GLGSV,1,1,01,,,,27*61
$GNGLL,3113.89235,N,12125.42430,E,034620.00,A,A*75
$GNRMC,034621.00,A,3113.89278,N,12125.42595,E,1.736,,070120,,,A*6D
$GNVTG,,T,,M,1.736,N,3.215,K,A*3B
$GNGGA,034621.00,3113.89278,N,12125.42595,E,1,04,10.24,35.3,M,9.7,M,,*7E
$GNGSA,A,3,20,10,25,32,,,,,,,,,10.75,10.24,3.29*15
$GNGSA,A,3,,,,,,,,,,,,,10.75,10.24,3.29*10
$GPGSV,2,1,07,10,70,307,32,12,44,094,24,15,,,21,20,70,182,29*44
$GPGSV,2,2,07,25,41,153,32,31,13,234,19,32,37,308,21*4A
$GLGSV,1,1,01,,,,33*64
$GNGLL,3113.89278,N,12125.42595,E,034621.00,A,A*73
$GNRMC,034622.00,A,3113.89205,N,12125.42653,E,2.571,,070120,,,A*6F
$GNVTG,,T,,M,2.571,N,4.761,K,A*38
$GNGGA,034622.00,3113.89205,N,12125.42653,E,1,04,10.24,35.3,M,9.7,M,,*7E
$GNGSA,A,3,20,10,25,32,,,,,,,,,10.75,10.24,3.29*15
$GNGSA,A,3,,,,,,,,,,,,,10.75,10.24,3.29*10
$GPGSV,2,1,07,10,70,307,31,12,44,094,35,15,,,22,20,70,182,33*4F
$GPGSV,2,2,07,25,41,153,33,31,13,234,19,32,37,308,21*4B
$GLGSV,1,1,01,,,,34*63
$GNGLL,3113.89205,N,12125.42653,E,034622.00,A,A*73
$GNRMC,034623.00,A,3113.89204,N,12125.42821,E,2.486,,070120,,,A*6D
$GNVTG,,T,,M,2.486,N,4.605,K,A*32
$GNGGA,034623.00,3113.89204,N,12125.42821,E,1,04,10.24,35.5,M,9.7,M,,*73
$GNGSA,A,3,20,10,25,32,,,,,,,,,10.75,10.24,3.29*15
$GNGSA,A,3,,,,,,,,,,,,,10.75,10.24,3.29*10
$GPGSV,2,1,07,10,70,307,30,12,44,094,26,15,,,21,20,70,181,32*4D
$GPGSV,2,2,07,25,41,153,32,31,13,234,18,32,37,308,20*4A
$GLGSV,1,1,01,,,,36*61
$GNGLL,3113.89204,N,12125.42821,E,034623.00,A,A*78
$GNRMC,034624.00,A,3113.89165,N,12125.42899,E,2.548,,070120,,,A*6E
$GNVTG,,T,,M,2.548,N,4.718,K,A*3C
$GNGGA,034624.00,3113.89165,N,12125.42899,E,1,04,10.23,35.6,M,9.7,M,,*77
$GNGSA,A,3,20,10,25,32,,,,,,,,,10.75,10.23,3.29*12
$GNGSA,A,3,,,,,,,,,,,,,10.75,10.23,3.29*17
$GPGSV,2,1,07,10,70,307,30,12,44,094,38,15,,,22,20,70,181,31*42
$GPGSV,2,2,07,25,41,153,36,31,13,234,19,32,37,308,20*4F
$GLGSV,1,1,01,,,,34*63
$GNGLL,3113.89165,N,12125.42899,E,034624.00,A,A*78
$GNRMC,034625.00,A,3113.89190,N,12125.43078,E,1.409,,070120,,,A*64
$GNVTG,,T,,M,1.409,N,2.609,K,A*3C
$GNGGA,034625.00,3113.89190,N,12125.43078,E,1,04,10.23,37.8,M,9.7,M,,*76
$GNGSA,A,3,20,10,25,32,,,,,,,,,10.75,10.23,3.29*12
$GNGSA,A,3,,,,,,,,,,,,,10.75,10.23,3.29*17
$GPGSV,2,1,07,10,70,307,30,12,44,094,25,15,,,21,20,70,181,29*44
$GPGSV,2,2,07,25,41,153,26,31,13,234,18,32,37,308,18*44
$GLGSV,1,1,01,,,,27*61
$GNGLL,3113.89190,N,12125.43078,E,034625.00,A,A*75
$GNRMC,034626.00,A,3113.89156,N,12125.43121,E,1.444,,070120,,,A*69
$GNVTG,,T,,M,1.444,N,2.674,K,A*3F
$GNGGA,034626.00,3113.89156,N,12125.43121,E,1,04,10.23,38.9,M,9.7,M,,*7C
$GNGSA,A,3,20,10,25,32,,,,,,,,,10.75,10.23,3.29*12
$GNGSA,A,3,,,,,,,,,,,,,10.75,10.23,3.29*17
$GPGSV,2,1,07,10,70,307,33,12,44,094,35,15,,,20,20,70,181,28*46
$GPGSV,2,2,07,25,41,153,31,31,13,234,17,32,37,308,19*4C
$GLGSV,1,1,01,,,,26*60
$GNGLL,3113.89156,N,12125.43121,E,034626.00,A,A*71
$GNRMC,034627.00,A,3113.89147,N,12125.43183,E,1.106,,070120,,,A*63
$GNVTG,,T,,M,1.106,N,2.049,K,A*34
$GNGGA,034627.00,3113.89147,N,12125.43183,E,1,04,10.23,40.1,M,9.7,M,,*72
$GNGSA,A,3,20,10,25,32,,,,,,,,,10.75,10.23,3.29*12
$GNGSA,A,3,,,,,,,,,,,,,10.75,10.23,3.29*17
$GPGSV,2,1,07,10,70,307,30,12,44,094,27,15,,,19,20,70,181,29*4D
$GPGSV,2,2,07,25,41,153,24,31,13,234,16,32,37,308,18*48
$GLGSV,1,1,01,,,,26*60
$GNGLL,3113.89147,N,12125.43183,E,034627.00,A,A*78
$GNRMC,034628.00,A,3113.89304,N,12125.43515,E,1.689,,070120,,,A*62
$GNVTG,,T,,M,1.689,N,3.128,K,A*33
$GNGGA,034628.00,3113.89304,N,12125.43515,E,1,04,10.23,41.9,M,9.7,M,,*7A
$GNGSA,A,3,20,10,25,32,,,,,,,,,10.75,10.23,3.29*12
$GNGSA,A,3,,,,,,,,,,,,,10.75,10.23,3.29*17
$GPGSV,2,1,07,10,70,307,34,12,44,094,25,15,,,21,20,70,181,29*40
$GPGSV,2,2,07,25,41,153,22,31,13,234,20,32,37,308,18*4B
$GLGSV,1,1,01,,,,24*62
$GNGLL,3113.89304,N,12125.43515,E,034628.00,A,A*79
$GNRMC,034629.00,A,3113.89351,N,12125.43504,E,1.534,,070120,,,A*66
$GNVTG,,T,,M,1.534,N,2.841,K,A*31
$GNGGA,034629.00,3113.89351,N,12125.43504,E,1,03,12.33,35.2,M,9.7,M,,*77
$GNGSA,A,2,20,10,25,,,,,,,,,,12.37,12.33,1.00*1C
$GNGSA,A,2,,,,,,,,,,,,,12.37,12.33,1.00*18
$GPGSV,2,1,07,10,70,307,32,12,44,094,24,15,,,19,20,70,181,28*4D
$GPGSV,2,2,07,25,41,153,18,31,13,234,20,32,37,308,17*4D
$GLGSV,1,1,01,,,,21*67
$GNGLL,3113.89351,N,12125.43504,E,034629.00,A,A*78
$GNRMC,034630.00,A,3113.89368,N,12125.43520,E,1.588,,070120,,,A*65
$GNVTG,,T,,M,1.588,N,2.942,K,A*34
$GNGGA,034630.00,3113.89368,N,12125.43520,E,1,03,12.32,29.1,M,9.7,M,,*7C
$GNGSA,A,2,20,10,25,,,,,,,,,,12.36,12.32,1.00*1C
$GNGSA,A,2,,,,,,,,,,,,,12.36,12.32,1.00*18
$GPGSV,2,1,07,10,70,307,31,12,44,094,21,15,,,16,20,70,181,27*4B
$GPGSV,2,2,07,25,41,153,18,31,13,234,18,32,37,308,14*45
$GLGSV,1,1,01,,,,19*6C
$GNGLL,3113.89368,N,12125.43520,E,034630.00,A,A*7C
$GNRMC,034631.00,A,3113.89383,N,12125.43594,E,2.675,,070120,,,A*6C
$GNVTG,,T,,M,2.675,N,4.954,K,A*37
$GNGGA,034631.00,3113.89383,N,12125.43594,E,1,03,12.31,26.6,M,9.7,M,,*7C
$GNGSA,A,2,20,10,25,,,,,,,,,,12.35,12.31,1.00*1C
$GNGSA,A,2,,,,,,,,,,,,,12.35,12.31,1.00*18
$GPGSV,2,1,06,10,70,307,29,12,44,094,21,20,70,181,25,25,41,153,19*7F
$GPGSV,2,2,06,31,13,234,16,32,37,308,12*70
$GLGSV,1,1,01,,,,28*6E
$GNGLL,3113.89383,N,12125.43594,E,034631.00,A,A*77
$GNRMC,034632.00,A,3113.89392,N,12125.43668,E,2.622,,070120,,,A*6D
$GNVTG,,T,,M,2.622,N,4.855,K,A*35
$GNGGA,034632.00,3113.89392,N,12125.43668,E,1,03,12.30,22.6,M,9.7,M,,*7A
$GNGSA,A,2,20,10,25,,,,,,,,,,12.34,12.30,1.00*1C
$GNGSA,A,2,,,,,,,,,,,,,12.34,12.30,1.00*18
$GPGSV,2,1,06,10,70,307,28,12,44,094,24,20,70,181,25,25,41,153,19*7B
$GPGSV,2,2,06,31,13,234,16,32,37,308,09*7A
$GLGSV,1,1,01,,,,26*60
$GNGLL,3113.89392,N,12125.43668,E,034632.00,A,A*74
$GNRMC,034633.00,A,3113.89351,N,12125.43618,E,2.122,,070120,,,A*63
$GNVTG,,T,,M,2.122,N,3.929,K,A*3F
$GNGGA,034633.00,3113.89351,N,12125.43618,E,1,03,12.29,17.0,M,9.7,M,,*7B
$GNGSA,A,2,20,10,25,,,,,,,,,,12.33,12.29,1.00*13
$GNGSA,A,2,,,,,,,,,,,,,12.33,12.29,1.00*17
$GPGSV,2,1,06,10,70,307,27,12,44,094,29,20,70,181,25,25,41,153,23*70
$GPGSV,2,2,06,31,13,234,16,32,37,308,08*7B
$GLGSV,1,1,01,,,,23*65
$GNGLL,3113.89351,N,12125.43618,E,034633.00,A,A*7D
$GNRMC,034634.00,A,3113.89324,N,12125.43554,E,1.045,,070120,,,A*6E
$GNVTG,,T,,M,1.045,N,1.936,K,A*30
$GNGGA,034634.00,3113.89324,N,12125.43554,E,1,03,12.28,16.6,M,9.7,M,,*73
$GNGSA,A,2,20,10,25,,,,,,,,,,12.32,12.28,1.00*13
$GNGSA,A,2,,,,,,,,,,,,,12.32,12.28,1.00*17
$GPGSV,2,1,06,10,70,307,27,12,44,094,28,20,70,181,23,25,41,153,23*77
$GPGSV,2,2,06,31,13,234,15,32,37,308,08*78
$GLGSV,1,1,01,,,,24*62
$GNGLL,3113.89324,N,12125.43554,E,034634.00,A,A*73
$GNRMC,034635.00,A,3113.89432,N,12125.43768,E,2.089,,070120,,,A*61
$GNVTG,,T,,M,2.089,N,3.868,K,A*3B
$GNGGA,034635.00,3113.89432,N,12125.43768,E,1,04,10.23,21.1,M,9.7,M,,*72
$GNGSA,A,3,20,10,25,32,,,,,,,,,10.74,10.23,3.30*1B
$GNGSA,A,3,,,,,,,,,,,,,10.74,10.23,3.30*1E
$GPGSV,2,1,06,10,70,307,27,12,44,094,25,20,70,181,23,25,41,153,25*7C
$GPGSV,2,2,06,31,13,234,16,32,37,308,11*73
$GLGSV,1,1,01,,,,24*62
$GNGLL,3113.89432,N,12125.43768,E,034635.00,A,A*7F
$GNRMC,034636.00,A,3113.89587,N,12125.44055,E,3.468,76.55,070120,,,A*46
$GNVTG,76.55,T,,M,3.468,N,6.422,K,A*19
$GNGGA,034636.00,3113.89587,N,12125.44055,E,1,04,10.23,24.0,M,9.7,M,,*74
$GNGSA,A,3,20,10,25,32,,,,,,,,,10.74,10.23,3.30*1B
$GNGSA,A,3,,,,,,,,,,,,,10.74,10.23,3.30*1E
$GPGSV,2,1,06,10,70,307,27,12,44,094,28,20,70,181,21,25,41,153,25*73
$GPGSV,2,2,06,31,13,234,20,32,37,308,10*77
$GLGSV,1,1,01,,,,25*63
$GNGLL,3113.89587,N,12125.44055,E,034636.00,A,A*7D
$GNRMC,034637.00,A,3113.89704,N,12125.44205,E,3.917,63.01,070120,,,A*49
$GNVTG,63.01,T,,M,3.917,N,7.254,K,A*1F
$GNGGA,034637.00,3113.89704,N,12125.44205,E,1,03,12.25,23.2,M,9.7,M,,*7D
$GNGSA,A,2,20,10,25,,,,,,,,,,12.29,12.25,1.00*14
$GNGSA,A,2,,,,,,,,,,,,,12.29,12.25,1.00*10
$GPGSV,2,1,06,10,70,307,27,12,44,094,30,20,70,181,20,25,41,153,25*7B
$GPGSV,2,2,06,31,13,234,20,32,37,308,10*77
$GLGSV,1,1,01,,,,26*60
$GNGLL,3113.89704,N,12125.44205,E,034637.00,A,A*72
$GNRMC,034638.00,A,3113.89797,N,12125.44360,E,3.579,57.76,070120,,,A*4D
$GNVTG,57.76,T,,M,3.579,N,6.628,K,A*12
$GNGGA,034638.00,3113.89797,N,12125.44360,E,1,04,10.22,25.6,M,9.7,M,,*7A
$GNGSA,A,3,20,10,25,32,,,,,,,,,10.74,10.22,3.30*1A
$GNGSA,A,3,,,,,,,,,,,,,10.74,10.22,3.30*1F
$GPGSV,2,1,06,10,70,307,27,12,44,094,28,20,70,181,19,25,41,153,26*7B
$GPGSV,2,2,06,31,13,234,20,32,37,308,12*75
$GLGSV,1,1,01,,,,26*60
$GNGLL,3113.89797,N,12125.44360,E,034638.00,A,A*75
$GNRMC,034639.00,A,3113.89943,N,12125.44577,E,4.479,53.16,070120,,,A*4F
$GNVTG,53.16,T,,M,4.479,N,8.294,K,A*1B
$GNGGA,034639.00,3113.89943,N,12125.44577,E,1,04,10.22,27.4,M,9.7,M,,*7C
$GNGSA,A,3,20,10,25,32,,,,,,,,,10.74,10.22,3.30*1A
$GNGSA,A,3,,,,,,,,,,,,,10.74,10.22,3.30*1F
$GPGSV,2,1,06,10,70,307,28,12,44,094,28,20,70,181,20,25,41,153,27*7F
$GPGSV,2,2,06,31,13,234,21,32,37,308,12*74
$GLGSV,1,1,01,,,,26*60
$GNGLL,3113.89943,N,12125.44577,E,034639.00,A,A*73
$GNRMC,034639.00,A,3113.89535,N,12125.43839,E,0.663,,070120,,,A*60
$GNVTG,,T,,M,0.663,N,1.228,K,A*37
$GNGGA,034639.00,3113.89535,N,12125.43839,E,1,04,7.83,28.4,M,9.7,M,,*43
$GNGSA,A,3,20,10,25,,,,,,,,,,13.13,7.83,10.54*14
$GNGSA,A,3,76,,,,,,,,,,,,13.13,7.83,10.54*11
$GPGSV,2,1,06,10,70,307,28,12,44,094,25,20,70,181,18,25,41,153,26*78
$GPGSV,2,2,06,31,13,234,22,32,37,308,11*74
$GLGSV,1,1,01,76,64,197,23*59
$GNGLL,3113.89535,N,12125.43839,E,034639.00,A,A*7E
$GNRMC,034640.00,A,3113.89446,N,12125.43658,E,0.300,,070120,,,A*62
$GNVTG,,T,,M,0.300,N,0.556,K,A*38
$GNGGA,034640.00,3113.89446,N,12125.43658,E,1,04,7.84,28.3,M,9.7,M,,*41
$GNGSA,A,3,20,10,25,,,,,,,,,,13.15,7.84,10.56*17
$GNGSA,A,3,76,,,,,,,,,,,,13.15,7.84,10.56*12
$GPGSV,2,1,06,10,70,307,28,12,44,094,24,20,70,181,18,25,41,153,26*79
$GPGSV,2,2,06,31,13,234,22,32,37,308,13*76
$GLGSV,1,1,01,76,64,197,20*5A
$GNGLL,3113.89446,N,12125.43658,E,034640.00,A,A*7C
$GNRMC,034641.00,V,,,,,,,070120,,,N*63
$GNVTG,,,,,,,,,N*2E
$GNGGA,034641.00,,,,,0,03,12.20,,,,,,*7E
$GNGSA,A,1,20,10,25,,,,,,,,,,12.24,12.20,1.00*1F
$GNGSA,A,1,,,,,,,,,,,,,12.24,12.20,1.00*1B
$GPGSV,2,1,06,10,70,307,28,12,44,094,24,20,70,181,17,25,41,153,27*77
$GPGSV,2,2,06,31,13,234,21,32,37,308,10*76
$GLGSV,1,1,01,76,64,197,19*50
$GNGLL,,,,,034641.00,V,N*50
$GNRMC,034642.00,V,,,,,,,070120,,,N*60
$GNVTG,,,,,,,,,N*2E
$GNGGA,034642.00,,,,,0,03,12.19,,,,,,*77
$GNGSA,A,1,20,10,25,,,,,,,,,,12.23,12.19,1.00*12
$GNGSA,A,1,,,,,,,,,,,,,12.23,12.19,1.00*16
$GPGSV,2,1,06,10,70,307,27,12,44,094,27,20,70,181,18,25,41,153,28*7B
$GPGSV,2,2,06,31,13,234,21,32,37,308,10*76
$GLGSV,1,1,01,76,64,197,21*5B
$GNGLL,,,,,034642.00,V,N*53
$GNRMC,034643.00,A,3113.89284,N,12125.43229,E,0.739,,070120,,,A*65
$GNVTG,,T,,M,0.739,N,1.368,K,A*3C
$GNGGA,034643.00,3113.89284,N,12125.43229,E,1,04,10.22,27.8,M,9.7,M,,*76
$GNGSA,A,3,20,10,25,32,,,,,,,,,10.74,10.22,3.30*1A
$GNGSA,A,3,,,,,,,,,,,,,10.74,10.22,3.30*1F
$GPGSV,2,1,07,10,70,307,27,12,44,094,24,14,17,290,,20,70,181,19*7F
$GPGSV,2,2,07,25,41,153,27,31,13,234,20,32,37,308,14*42
$GLGSV,1,1,01,76,64,197,22*58
$GNGLL,3113.89284,N,12125.43229,E,034643.00,A,A*75
$GNRMC,034644.00,A,3113.89144,N,12125.42960,E,1.307,,070120,,,A*62
$GNVTG,,T,,M,1.307,N,2.421,K,A*3D
$GNGGA,034644.00,3113.89144,N,12125.42960,E,1,04,10.22,28.8,M,9.7,M,,*76
$GNGSA,A,3,20,10,25,32,,,,,,,,,10.74,10.22,3.30*1A
$GNGSA,A,3,,,,,,,,,,,,,10.74,10.22,3.30*1F
$GPGSV,2,1,07,10,70,307,27,12,44,094,24,14,17,290,25,20,70,181,20*72
$GPGSV,2,2,07,25,41,153,26,31,13,234,19,32,37,308,11*4C
$GLGSV,1,1,01,76,64,197,21*5B
$GNGLL,3113.89144,N,12125.42960,E,034644.00,A,A*7A
$GNRMC,034645.00,A,3113.89230,N,12125.43097,E,0.594,,070120,,,A*6E
$GNVTG,,T,,M,0.594,N,1.100,K,A*35
$GNGGA,034645.00,3113.89230,N,12125.43097,E,1,04,10.22,28.7,M,9.7,M,,*78
$GNGSA,A,3,20,10,25,32,,,,,,,,,10.74,10.22,3.30*1A
$GNGSA,A,3,,,,,,,,,,,,,10.74,10.22,3.30*1F
$GPGSV,2,1,07,10,70,307,27,12,44,094,23,14,17,290,24,20,70,181,21*75
$GPGSV,2,2,07,25,41,153,25,31,13,234,19,32,37,308,12*4C
$GLGSV,1,1,01,76,64,197,21*5B
$GNGLL,3113.89230,N,12125.43097,E,034645.00,A,A*7B
$GNRMC,034646.00,A,3113.88939,N,12125.42596,E,1.903,,070120,,,A*68
$GNVTG,,T,,M,1.903,N,3.525,K,A*37
$GNGGA,034646.00,3113.88939,N,12125.42596,E,1,05,5.08,28.1,M,9.7,M,,*46
$GNGSA,A,3,20,10,25,32,,,,,,,,,5.99,5.08,3.18*1B
$GNGSA,A,3,76,,,,,,,,,,,,5.99,5.08,3.18*1F
$GPGSV,2,1,07,10,70,307,27,12,44,094,26,14,17,290,23,20,70,181,21*77
$GPGSV,2,2,07,25,41,153,25,31,13,234,18,32,37,308,16*49
$GLGSV,1,1,01,76,64,197,22*58
$GNGLL,3113.88939,N,12125.42596,E,034646.00,A,A*7E
$GNRMC,034647.00,A,3113.89022,N,12125.42780,E,1.356,,070120,,,A*64
$GNVTG,,T,,M,1.356,N,2.511,K,A*3B
$GNGGA,034647.00,3113.89022,N,12125.42780,E,1,05,5.08,27.6,M,9.7,M,,*48
$GNGSA,A,3,20,10,25,32,,,,,,,,,5.99,5.08,3.18*1B
$GNGSA,A,3,76,,,,,,,,,,,,5.99,5.08,3.18*1F
$GPGSV,2,1,07,10,70,307,26,12,44,094,28,14,17,290,24,20,70,181,22*7C
$GPGSV,2,2,07,25,41,153,24,31,13,234,18,32,37,308,16*48
$GLGSV,1,1,01,76,64,197,21*5B
$GNGLL,3113.89022,N,12125.42780,E,034647.00,A,A*78
$GNRMC,034648.00,A,3113.89090,N,12125.42895,E,0.270,,070120,,,A*6D
$GNVTG,,T,,M,0.270,N,0.499,K,A*3C
$GNGGA,034648.00,3113.89090,N,12125.42895,E,1,05,5.08,27.4,M,9.7,M,,*47
$GNGSA,A,3,20,10,25,32,,,,,,,,,6.00,5.08,3.18*18
$GNGSA,A,3,76,,,,,,,,,,,,6.00,5.08,3.18*1C
$GPGSV,2,1,07,10,70,307,26,12,44,093,29,14,17,290,23,20,70,181,21*7E
$GPGSV,2,2,07,25,41,153,25,31,13,234,18,32,37,308,19*46
$GLGSV,1,1,01,76,64,197,20*5A
$GNGLL,3113.89090,N,12125.42895,E,034648.00,A,A*75
$GNRMC,034649.00,A,3113.89144,N,12125.42981,E,0.395,,070120,,,A*6A
$GNVTG,,T,,M,0.395,N,0.731,K,A*37
$GNGGA,034649.00,3113.89144,N,12125.42981,E,1,05,5.08,27.2,M,9.7,M,,*4C
$GNGSA,A,3,20,10,25,32,,,,,,,,,6.00,5.08,3.19*19
$GNGSA,A,3,76,,,,,,,,,,,,6.00,5.08,3.19*1D
$GPGSV,2,1,07,10,70,307,24,12,44,093,30,14,17,290,24,20,70,181,21*73
$GPGSV,2,2,07,25,41,153,26,31,13,234,18,32,37,308,16*4A
$GLGSV,1,1,01,76,64,197,19*50
$GNGLL,3113.89144,N,12125.42981,E,034649.00,A,A*78
$GNRMC,034650.00,A,3113.89318,N,12125.43297,E,1.734,,070120,,,A*6A
$GNVTG,,T,,M,1.734,N,3.211,K,A*3D
$GNGGA,034650.00,3113.89318,N,12125.43297,E,1,05,5.08,27.2,M,9.7,M,,*42
$GNGSA,A,3,20,10,25,32,,,,,,,,,6.00,5.08,3.19*19
$GNGSA,A,3,76,,,,,,,,,,,,6.00,5.08,3.19*1D
$GPGSV,2,1,07,10,70,307,24,12,44,093,29,14,17,290,25,20,70,181,22*79
$GPGSV,2,2,07,25,41,153,27,31,13,234,19,32,37,308,14*48
$GLGSV,1,1,01,76,64,197,18*51
$GNGLL,3113.89318,N,12125.43297,E,034650.00,A,A*76
$GNRMC,034651.00,A,3113.89194,N,12125.43066,E,0.247,,070120,,,A*61
$GNVTG,,T,,M,0.247,N,0.457,K,A*3A
$GNGGA,034651.00,3113.89194,N,12125.43066,E,1,05,5.09,26.9,M,9.7,M,,*42
$GNGSA,A,3,20,10,25,32,,,,,,,,,6.00,5.09,3.19*18
$GNGSA,A,3,76,,,,,,,,,,,,6.00,5.09,3.19*1C
$GPGSV,2,1,07,10,70,307,24,12,44,093,29,14,17,290,25,20,70,181,22*79
$GPGSV,2,2,07,25,41,153,28,31,13,234,20,32,37,308,09*41
$GLGSV,1,1,01,76,64,197,18*51
$GNGLL,3113.89194,N,12125.43066,E,034651.00,A,A*7D
$GNRMC,034652.00,A,3113.89128,N,12125.42924,E,0.447,,070120,,,A*6D
$GNVTG,,T,,M,0.447,N,0.828,K,A*38
$GNGGA,034652.00,3113.89128,N,12125.42924,E,1,05,5.09,26.6,M,9.7,M,,*47
$GNGSA,A,3,20,10,25,32,,,,,,,,,6.01,5.09,3.19*19
$GNGSA,A,3,76,,,,,,,,,,,,6.01,5.09,3.19*1D
$GPGSV,2,1,07,10,70,307,24,12,44,093,29,14,17,290,24,20,70,181,23*79
$GPGSV,2,2,07,25,41,153,28,31,13,235,19,32,37,308,09*4A
$GLGSV,1,1,01,76,64,197,18*51
$GNGLL,3113.89128,N,12125.42924,E,034652.00,A,A*77
$GNRMC,034653.00,A,3113.89050,N,12125.42766,E,0.921,,070120,,,A*67
$GNVTG,,T,,M,0.921,N,1.706,K,A*37
$GNGGA,034653.00,3113.89050,N,12125.42766,E,1,05,5.09,26.1,M,9.7,M,,*47
$GNGSA,A,3,20,10,25,32,,,,,,,,,6.01,5.09,3.19*19
$GNGSA,A,3,76,,,,,,,,,,,,6.01,5.09,3.19*1D
$GPGSV,2,1,07,10,70,307,25,12,44,093,29,14,17,290,25,20,70,181,24*7E
$GPGSV,2,2,07,25,41,153,29,31,13,235,19,32,37,308,11*42
$GLGSV,1,1,01,76,64,197,18*51
$GNGLL,3113.89050,N,12125.42766,E,034653.00,A,A*70
$GNRMC,034654.00,A,3113.88910,N,12125.42506,E,1.471,,070120,,,A*61
$GNVTG,,T,,M,1.471,N,2.725,K,A*3C
$GNGGA,034654.00,3113.88910,N,12125.42506,E,1,05,5.09,25.5,M,9.7,M,,*4F
$GNGSA,A,3,20,10,25,32,,,,,,,,,6.01,5.09,3.19*19
$GNGSA,A,3,76,,,,,,,,,,,,6.01,5.09,3.19*1D
$GPGSV,2,1,07,10,70,307,24,12,44,093,30,14,17,290,24,20,70,181,25*77
$GPGSV,2,2,07,25,41,153,29,31,13,235,18,32,37,308,10*42
$GLGSV,1,1,01,76,64,197,17*5E
$GNGLL,3113.88910,N,12125.42506,E,034654.00,A,A*7F
$GNRMC,034655.00,A,3113.88899,N,12125.42439,E,0.492,,070120,,,A*61
$GNVTG,,T,,M,0.492,N,0.912,K,A*38
$GNGGA,034655.00,3113.88899,N,12125.42439,E,1,05,5.10,24.7,M,9.7,M,,*48
$GNGSA,A,3,20,10,25,32,,,,,,,,,6.01,5.10,3.19*11
$GNGSA,A,3,76,,,,,,,,,,,,6.01,5.10,3.19*15
$GPGSV,2,1,07,10,70,307,24,12,44,093,31,14,17,290,24,20,70,181,25*76
$GPGSV,2,2,07,25,41,153,30,31,13,235,19,32,37,308,10*4B
$GLGSV,1,1,01,76,64,197,17*5E
$GNGLL,3113.88899,N,12125.42439,E,034655.00,A,A*73
$GNRMC,034656.00,A,3113.88985,N,12125.42595,E,0.884,,070120,,,A*62
$GNVTG,,T,,M,0.884,N,1.637,K,A*3A
$GNGGA,034656.00,3113.88985,N,12125.42595,E,1,05,5.10,24.6,M,9.7,M,,*41
$GNGSA,A,3,20,10,25,32,,,,,,,,,6.02,5.10,3.19*12
$GNGSA,A,3,76,,,,,,,,,,,,6.02,5.10,3.19*16
$GPGSV,2,1,07,10,70,307,24,12,44,093,29,14,17,290,24,20,70,181,25*7F
$GPGSV,2,2,07,25,41,153,29,31,13,235,21,32,37,308,10*48
$GLGSV,1,1,01,76,64,197,19*50
$GNGLL,3113.88985,N,12125.42595,E,034656.00,A,A*7B
$GNRMC,034657.00,A,3113.88859,N,12125.42312,E,1.450,,070120,,,A*6E
$GNVTG,,T,,M,1.450,N,2.686,K,A*37
$GNGGA,034657.00,3113.88859,N,12125.42312,E,1,05,5.10,22.1,M,9.7,M,,*48
$GNGSA,A,3,20,10,25,32,,,,,,,,,6.02,5.10,3.20*18
$GNGSA,A,3,76,,,,,,,,,,,,6.02,5.10,3.20*1C
$GPGSV,2,1,07,10,70,307,26,12,44,093,22,14,17,290,24,20,70,181,25*76
$GPGSV,2,2,07,25,41,153,28,31,13,235,23,32,37,308,13*48
$GLGSV,1,1,01,76,64,197,18*51
$GNGLL,3113.88859,N,12125.42312,E,034657.00,A,A*73
$GNRMC,034658.00,A,3113.88937,N,12125.42391,E,0.464,,070120,,,A*65
$GNVTG,,T,,M,0.464,N,0.858,K,A*3E
$GNGGA,034658.00,3113.88937,N,12125.42391,E,1,05,5.10,21.3,M,9.7,M,,*44
$GNGSA,A,3,20,10,25,32,,,,,,,,,6.02,5.10,3.20*18
$GNGSA,A,3,76,,,,,,,,,,,,6.02,5.10,3.20*1C
$GPGSV,2,1,07,10,70,307,28,12,44,093,24,14,17,290,25,20,70,181,24*7E
$GPGSV,2,2,07,25,41,153,27,31,13,235,23,32,37,308,10*44
$GLGSV,1,1,01,76,64,197,18*51
$GNGLL,3113.88937,N,12125.42391,E,034658.00,A,A*7E
$GNRMC,034659.00,A,3113.89033,N,12125.42660,E,0.281,,070120,,,A*6E
$GNVTG,,T,,M,0.281,N,0.521,K,A*30
$GNGGA,034659.00,3113.89033,N,12125.42660,E,1,05,5.10,24.0,M,9.7,M,,*44
$GNGSA,A,3,20,10,25,32,,,,,,,,,6.02,5.10,3.20*18
$GNGSA,A,3,76,,,,,,,,,,,,6.02,5.10,3.20*1C
$GPGSV,2,1,07,10,70,307,28,12,44,093,25,14,17,290,26,20,70,181,23*7B
$GPGSV,2,2,07,25,41,153,26,31,13,235,22,32,37,308,13*47
$GLGSV,1,1,01,76,64,197,19*50
$GNGLL,3113.89033,N,12125.42660,E,034659.00,A,A*78
$GNRMC,034700.00,A,3113.89044,N,12125.42617,E,0.318,,070120,,,A*62
$GNVTG,,T,,M,0.318,N,0.589,K,A*33
$GNGGA,034700.00,3113.89044,N,12125.42617,E,1,05,5.11,22.7,M,9.7,M,,*49
$GNGSA,A,3,20,10,25,32,,,,,,,,,6.03,5.11,3.20*18
$GNGSA,A,3,76,,,,,,,,,,,,6.03,5.11,3.20*1C
$GPGSV,2,1,07,10,70,307,27,12,44,093,25,14,17,290,27,20,70,181,25*73
$GPGSV,2,2,07,25,41,153,26,31,13,235,22,32,37,308,13*47
$GLGSV,1,1,01,76,64,197,20*5A
$GNGLL,3113.89044,N,12125.42617,E,034700.00,A,A*75
$GNRMC,034701.00,A,3113.89041,N,12125.42614,E,0.132,,070120,,,A*6F
$GNVTG,,T,,M,0.132,N,0.245,K,A*3E
$GNGGA,034701.00,3113.89041,N,12125.42614,E,1,05,5.11,22.4,M,9.7,M,,*4D
$GNGSA,A,3,20,10,25,32,,,,,,,,,6.03,5.11,3.20*18
$GNGSA,A,3,76,,,,,,,,,,,,6.03,5.11,3.20*1C
$GPGSV,2,1,07,10,70,307,28,12,44,093,24,14,17,290,29,20,70,181,25*73
$GPGSV,2,2,07,25,41,153,24,31,13,235,21,32,37,308,10*45
$GLGSV,1,1,01,76,64,197,19*50
$GNGLL,3113.89041,N,12125.42614,E,034701.00,A,A*72
$GNRMC,034702.00,A,3113.89107,N,12125.42710,E,0.983,,070120,,,A*68
$GNVTG,,T,,M,0.983,N,1.821,K,A*35
$GNGGA,034702.00,3113.89107,N,12125.42710,E,1,05,5.11,22.4,M,9.7,M,,*48
$GNGSA,A,3,20,10,25,32,,,,,,,,,6.03,5.11,3.20*18
$GNGSA,A,3,76,,,,,,,,,,,,6.03,5.11,3.20*1C
$GPGSV,2,1,07,10,70,307,28,12,44,093,21,14,17,290,27,20,70,181,24*79
$GPGSV,2,2,07,25,41,153,22,31,13,235,20,32,37,308,12*40
$GLGSV,1,1,01,76,64,197,17*5E
$GNGLL,3113.89107,N,12125.42710,E,034702.00,A,A*77
$GNRMC,034703.00,A,3113.89072,N,12125.42679,E,0.435,,070120,,,A*64
$GNVTG,,T,,M,0.435,N,0.805,K,A*32
$GNGGA,034703.00,3113.89072,N,12125.42679,E,1,05,5.11,22.9,M,9.7,M,,*49
$GNGSA,A,3,20,10,25,32,,,,,,,,,6.03,5.11,3.20*18
$GNGSA,A,3,76,,,,,,,,,,,,6.03,5.11,3.20*1C
$GPGSV,2,1,07,10,70,307,31,12,44,093,19,14,17,290,26,20,70,181,23*7C
$GPGSV,2,2,07,25,41,153,23,31,13,235,20,32,37,308,12*41
$GLGSV,1,1,01,76,64,197,18*51
$GNGLL,3113.89072,N,12125.42679,E,034703.00,A,A*7B
$GNRMC,034704.00,A,3113.89085,N,12125.42636,E,0.751,,070120,,,A*61
$GNVTG,,T,,M,0.751,N,1.390,K,A*35
$GNGGA,034704.00,3113.89085,N,12125.42636,E,1,05,5.12,22.3,M,9.7,M,,*44
$GNGSA,A,3,20,10,25,32,,,,,,,,,6.04,5.12,3.20*1C
$GNGSA,A,3,76,,,,,,,,,,,,6.04,5.12,3.20*18
$GPGSV,2,1,07,10,70,307,31,12,44,093,19,14,17,290,27,20,70,181,23*7D
$GPGSV,2,2,07,25,41,153,23,31,13,235,19,32,37,308,12*4B
$GLGSV,1,1,01,76,64,197,20*5A
$GNGLL,3113.89085,N,12125.42636,E,034704.00,A,A*7F
$GNRMC,034705.00,A,3113.89043,N,12125.42422,E,0.552,,070120,,,A*6C
$GNVTG,,T,,M,0.552,N,1.022,K,A*3E
$GNGGA,034705.00,3113.89043,N,12125.42422,E,1,05,5.12,18.8,M,9.7,M,,*4A
$GNGSA,A,3,20,10,25,32,,,,,,,,,6.04,5.12,3.21*1D
$GNGSA,A,3,76,,,,,,,,,,,,6.04,5.12,3.21*19
$GPGSV,2,1,07,10,70,307,31,12,44,093,19,14,17,290,27,20,70,181,23*7D
$GPGSV,2,2,07,25,41,153,25,31,13,235,17,32,37,308,12*43
$GLGSV,1,1,01,76,64,197,22*58
$GNGLL,3113.89043,N,12125.42422,E,034705.00,A,A*73
$GNRMC,034706.00,A,3113.89089,N,12125.42508,E,0.508,,070120,,,A*6F
$GNVTG,,T,,M,0.508,N,0.940,K,A*3D
$GNGGA,034706.00,3113.89089,N,12125.42508,E,1,05,5.12,19.1,M,9.7,M,,*4E
$GNGSA,A,3,20,10,25,32,,,,,,,,,6.04,5.12,3.21*1D
$GNGSA,A,3,76,,,,,,,,,,,,6.04,5.12,3.21*19
$GPGSV,2,1,07,10,70,307,31,12,44,093,19,14,17,290,27,20,70,181,25*7B
$GPGSV,2,2,07,25,41,153,24,31,13,235,15,32,37,308,12*40
$GLGSV,1,1,01,76,64,197,22*58
$GNGLL,3113.89089,N,12125.42508,E,034706.00,A,A*7F
$GNRMC,034707.00,A,3113.88994,N,12125.42333,E,0.911,,070120,,,A*60
$GNVTG,,T,,M,0.911,N,1.688,K,A*33
$GNGGA,034707.00,3113.88994,N,12125.42333,E,1,05,5.12,18.5,M,9.7,M,,*40
$GNGSA,A,3,20,10,25,32,,,,,,,,,6.04,5.12,3.21*1D
$GNGSA,A,3,76,,,,,,,,,,,,6.04,5.12,3.21*19
$GPGSV,2,1,07,10,70,307,30,12,44,093,19,14,17,290,26,20,70,181,24*7A
$GPGSV,2,2,07,25,41,153,24,31,13,235,12,32,37,308,09*4D
$GLGSV,1,1,01,76,64,197,23*59
$GNGLL,3113.88994,N,12125.42333,E,034707.00,A,A*74
$GNRMC,034708.00,A,3113.89052,N,12125.42462,E,0.744,,070120,,,A*60
$GNVTG,,T,,M,0.744,N,1.378,K,A*37
$GNGGA,034708.00,3113.89052,N,12125.42462,E,1,05,5.13,20.0,M,9.7,M,,*41
$GNGSA,A,3,20,10,25,32,,,,,,,,,6.05,5.13,3.21*1D
$GNGSA,A,3,76,,,,,,,,,,,,6.05,5.13,3.21*19
$GPGSV,2,1,07,10,70,307,30,12,44,093,20,14,17,290,25,20,70,181,23*74
$GPGSV,2,2,07,25,41,153,25,31,13,235,15,32,37,308,10*43
$GLGSV,1,1,01,76,64,197,24*5E
$GNGLL,3113.89052,N,12125.42462,E,034708.00,A,A*7A
$GNRMC,034709.00,V,,,,,,,070120,,,N*6E
$GNVTG,,,,,,,,,N*2E
$GNGGA,034709.00,,,,,0,05,5.13,,,,,,*43
$GNGSA,A,1,20,10,25,32,,,,,,,,,6.05,5.13,3.21*1F
$GNGSA,A,1,76,,,,,,,,,,,,6.05,5.13,3.21*1B
$GPGSV,2,1,07,10,70,307,31,12,44,093,20,14,17,290,23,20,70,181,21*71
$GPGSV,2,2,07,25,41,153,24,31,13,235,15,32,37,308,10*42
$GLGSV,1,1,01,76,64,197,21*5B
$GNGLL,,,,,034709.00,V,N*5D
$GNRMC,034710.00,V,,,,,,,070120,,,N*66
$GNVTG,,,,,,,,,N*2E
$GNGGA,034710.00,,,,,0,05,5.13,,,,,,*4B
$GNGSA,A,1,20,10,25,32,,,,,,,,,6.05,5.13,3.21*1F
$GNGSA,A,1,76,,,,,,,,,,,,6.05,5.13,3.21*1B
$GPGSV,2,1,07,10,70,307,31,12,44,093,18,14,17,290,20,20,70,181,19*72
$GPGSV,2,2,07,25,41,153,23,31,13,235,16,32,37,308,10*46
$GLGSV,1,1,01,76,64,197,19*50
$GNGLL,,,,,034710.00,V,N*55
$GNRMC,034711.00,V,,,,,,,070120,,,N*67
$GNVTG,,,,,,,,,N*2E
$GNGGA,034711.00,,,,,0,05,5.13,,,,,,*4A
$GNGSA,A,1,20,10,25,32,,,,,,,,,6.05,5.13,3.21*1F
$GNGSA,A,1,76,,,,,,,,,,,,6.05,5.13,3.21*1B
$GPGSV,2,1,07,10,70,307,32,12,44,093,18,14,17,290,16,20,70,181,16*7B
$GPGSV,2,2,07,25,41,153,21,31,13,235,13,32,37,308,10*41
$GLGSV,1,1,01,76,64,198,18*5E
$GNGLL,,,,,034711.00,V,N*54
$GNRMC,034712.00,V,,,,,,,070120,,,N*64
$GNVTG,,,,,,,,,N*2E
$GNGGA,034712.00,,,,,0,05,5.13,,,,,,*49
$GNGSA,A,1,20,10,25,32,,,,,,,,,6.06,5.13,3.21*1C
$GNGSA,A,1,76,,,,,,,,,,,,6.06,5.13,3.21*18
$GPGSV,2,1,07,10,70,307,31,12,44,093,21,14,17,290,15,20,70,181,16*71
$GPGSV,2,2,07,25,41,153,21,31,13,235,13,32,37,308,10*41
$GLGSV,1,1,01,76,64,198,19*5F
$GNGLL,,,,,034712.00,V,N*57
$GNRMC,034713.00,V,,,,,,,070120,,,N*65
$GNVTG,,,,,,,,,N*2E
$GNGGA,034713.00,,,,,0,05,5.14,,,,,,*4F
$GNGSA,A,1,20,10,25,32,,,,,,,,,6.06,5.14,3.21*1B
$GNGSA,A,1,76,,,,,,,,,,,,6.06,5.14,3.21*1F
$GPGSV,2,1,08,10,70,307,31,12,44,093,22,14,17,290,17,15,14,093,*7E
$GPGSV,2,2,08,20,70,181,16,25,41,153,21,31,13,235,14,32,37,308,09*7B
$GLGSV,1,1,01,76,64,198,23*56
$GNGLL,,,,,034713.00,V,N*56
$GNRMC,034714.00,V,,,,,,,070120,,,N*62
$GNVTG,,,,,,,,,N*2E
$GNGGA,034714.00,,,,,0,05,5.14,,,,,,*48
$GNGSA,A,1,20,10,25,32,,,,,,,,,6.06,5.14,3.22*18
$GNGSA,A,1,76,,,,,,,,,,,,6.06,5.14,3.22*1C
$GPGSV,2,1,08,10,70,306,30,12,44,093,21,14,17,290,26,15,14,093,*7F
$GPGSV,2,2,08,20,70,181,20,25,41,153,23,31,13,235,16,32,37,308,08*7F
$GLGSV,1,1,01,76,64,198,23*56
$GNGLL,,,,,034714.00,V,N*51
$GNRMC,034715.00,V,,,,,,,070120,,,N*63
$GNVTG,,,,,,,,,N*2E
$GNGGA,034715.00,,,,,0,05,5.14,,,,,,*49
$GNGSA,A,1,20,10,25,32,,,,,,,,,6.07,5.14,3.22*19
$GNGSA,A,1,76,,,,,,,,,,,,6.07,5.14,3.22*1D
$GPGSV,2,1,08,10,70,306,29,12,44,093,18,14,17,290,24,15,14,093,*7F
$GPGSV,2,2,08,20,70,181,22,25,41,153,25,31,13,235,15,32,37,308,12*73
$GLGSV,1,1,01,76,64,198,20*55
$GNGLL,,,,,034715.00,V,N*50
$GNRMC,034716.00,V,,,,,,,070120,,,N*60
$GNVTG,,,,,,,,,N*2E
$GNGGA,034716.00,,,,,0,05,5.14,,,,,,*4A
$GNGSA,A,1,20,10,25,32,,,,,,,,,6.07,5.14,3.22*19
$GNGSA,A,1,76,,,,,,,,,,,,6.07,5.14,3.22*1D
$GPGSV,2,1,08,10,70,306,29,12,44,093,17,14,17,290,21,15,14,093,*75
$GPGSV,2,2,08,20,70,181,22,25,41,153,25,31,13,235,12,32,37,308,09*7E
$GLGSV,1,1,01,76,64,198,20*55
$GNGLL,,,,,034716.00,V,N*53
$GNRMC,034717.00,V,,,,,,,070120,,,N*61
$GNVTG,,,,,,,,,N*2E
$GNGGA,034717.00,,,,,0,05,5.15,,,,,,*4A
$GNGSA,A,1,20,10,25,32,,,,,,,,,6.07,5.15,3.22*18
$GNGSA,A,1,76,,,,,,,,,,,,6.07,5.15,3.22*1C
$GPGSV,2,1,08,10,70,306,27,12,44,093,17,14,17,291,20,15,14,093,*7B
$GPGSV,2,2,08,20,70,181,24,25,41,153,25,31,13,235,10,32,37,308,12*70
$GLGSV,1,1,01,76,64,198,19*5F
$GNGLL,,,,,034717.00,V,N*52
$GNRMC,034718.00,V,,,,,,,070120,,,N*6E
$GNVTG,,,,,,,,,N*2E
$GNGGA,034718.00,,,,,0,05,5.15,,,,,,*45
$GNGSA,A,1,20,10,25,32,,,,,,,,,6.07,5.15,3.22*18
$GNGSA,A,1,76,,,,,,,,,,,,6.07,5.15,3.22*1C
$GPGSV,2,1,08,10,70,306,26,12,44,093,18,14,17,291,20,15,14,093,*75
$GPGSV,2,2,08,20,70,181,25,25,41,153,25,31,13,235,,32,37,308,16*74
$GLGSV,1,1,01,76,64,198,21*54
$GNGLL,,,,,034718.00,V,N*5D
$GNRMC,034719.00,V,,,,,,,070120,,,N*6F
$GNVTG,,,,,,,,,N*2E
$GNGGA,034719.00,,,,,0,05,5.15,,,,,,*44
$GNGSA,A,1,20,10,25,32,,,,,,,,,6.08,5.15,3.22*17
$GNGSA,A,1,76,,,,,,,,,,,,6.08,5.15,3.22*13
$GPGSV,2,1,08,10,70,306,26,12,44,093,20,14,17,291,23,15,14,093,*7D
$GPGSV,2,2,08,20,69,181,24,25,41,153,25,31,13,235,,32,37,308,13*78
$GLGSV,1,1,01,76,64,198,22*57
$GNGLL,,,,,034719.00,V,N*5C
$GNRMC,034720.00,V,,,,,,,070120,,,N*65
$GNVTG,,,,,,,,,N*2E
$GNGGA,034720.00,,,,,0,05,5.15,,,,,,*4E
$GNGSA,A,1,20,10,25,32,,,,,,,,,6.08,5.15,3.22*17
$GNGSA,A,1,76,,,,,,,,,,,,6.08,5.15,3.22*13
$GPGSV,2,1,08,10,70,306,26,12,44,093,23,14,17,291,23,15,14,093,*7E
$GPGSV,2,2,08,20,69,181,25,25,41,153,26,31,13,235,,32,37,308,12*7B
$GLGSV,1,1,01,76,64,198,21*54
$GNGLL,,,,,034720.00,V,N*56
$GNRMC,034721.00,V,,,,,,,070120,,,N*64
$GNVTG,,,,,,,,,N*2E
$GNGGA,034721.00,,,,,0,05,5.16,,,,,,*4C
$GNGSA,A,1,20,10,25,32,,,,,,,,,6.08,5.16,3.22*14
$GNGSA,A,1,76,,,,,,,,,,,,6.08,5.16,3.22*10
$GPGSV,2,1,08,10,70,306,25,12,44,093,23,14,17,291,25,15,14,093,*7B
$GPGSV,2,2,08,20,69,181,24,25,41,153,26,31,13,235,,32,37,308,13*7B
$GLGSV,1,1,01,76,64,198,21*54
$GNGLL,,,,,034721.00,V,N*57
$GNRMC,034722.00,V,,,,,,,070120,,,N*67
$GNVTG,,,,,,,,,N*2E
$GNGGA,034722.00,,,,,0,05,5.16,,,,,,*4F
$GNGSA,A,1,20,10,25,32,,,,,,,,,6.08,5.16,3.23*15
$GNGSA,A,1,76,,,,,,,,,,,,6.08,5.16,3.23*11
$GPGSV,2,1,08,10,70,306,25,12,44,093,21,14,17,291,27,15,14,093,*7B
$GPGSV,2,2,08,20,69,181,24,25,41,153,25,31,13,235,,32,38,308,15*71
$GLGSV,1,1,01,76,64,198,21*54
$GNGLL,,,,,034722.00,V,N*54
$GNRMC,034723.00,V,,,,,,,070120,,,N*66
$GNVTG,,,,,,,,,N*2E
$GNGGA,034723.00,,,,,0,05,5.16,,,,,,*4E
$GNGSA,A,1,20,10,25,32,,,,,,,,,6.09,5.16,3.23*14
$GNGSA,A,1,76,,,,,,,,,,,,6.09,5.16,3.23*10
$GPGSV,2,1,08,10,70,306,24,12,44,093,22,14,17,291,28,15,14,093,*76
$GPGSV,2,2,08,20,69,181,25,25,41,153,25,31,13,235,,32,38,308,17*72
$GLGSV,1,1,01,76,64,198,22*57
$GNGLL,,,,,034723.00,V,N*55
$GNRMC,034724.00,V,,,,,,,070120,,,N*61
$GNVTG,,,,,,,,,N*2E
$GNGGA,034724.00,,,,,0,05,5.16,,,,,,*49
$GNGSA,A,1,20,10,25,32,,,,,,,,,6.09,5.16,3.23*14
$GNGSA,A,1,76,,,,,,,,,,,,6.09,5.16,3.23*10
$GPGSV,2,1,08,10,70,306,26,12,44,093,21,14,17,291,28,15,14,093,*77
$GPGSV,2,2,08,20,69,181,25,25,41,153,25,31,13,235,,32,38,308,10*75
$GLGSV,1,1,01,76,64,198,21*54
$GNGLL,,,,,034724.00,V,N*52
$GNRMC,034725.00,V,,,,,,,070120,,,N*60
$GNVTG,,,,,,,,,N*2E
$GNGGA,034725.00,,,,,0,05,5.16,,,,,,*48
$GNGSA,A,1,20,10,25,32,,,,,,,,,6.09,5.16,3.23*14
$GNGSA,A,1,76,,,,,,,,,,,,6.09,5.16,3.23*10
$GPGSV,2,1,08,10,70,306,26,12,44,093,20,14,17,291,28,15,14,093,*76
$GPGSV,2,2,08,20,69,181,24,25,41,153,25,31,13,235,,32,38,308,11*75
$GLGSV,1,1,01,76,64,198,21*54
$GNGLL,,,,,034725.00,V,N*53
$GNRMC,034726.00,V,,,,,,,070120,,,N*63
$GNVTG,,,,,,,,,N*2E
$GNGGA,034726.00,,,,,0,05,5.17,,,,,,*4A
$GNGSA,A,1,20,10,25,32,,,,,,,,,6.09,5.17,3.23*15
$GNGSA,A,1,76,,,,,,,,,,,,6.09,5.17,3.23*11
$GPGSV,2,1,08,10,70,306,26,12,44,093,19,14,17,291,28,15,14,093,*7C
$GPGSV,2,2,08,20,69,181,23,25,41,153,24,31,13,235,,32,38,308,16*74
$GLGSV,1,1,01,76,64,198,21*54
$GNGLL,,,,,034726.00,V,N*50
$GNRMC,034727.00,V,,,,,,,070120,,,N*62
$GNVTG,,,,,,,,,N*2E
$GNGGA,034727.00,,,,,0,05,5.17,,,,,,*4B
$GNGSA,A,1,20,10,25,32,,,,,,,,,6.10,5.17,3.23*1D
$GNGSA,A,1,76,,,,,,,,,,,,6.10,5.17,3.23*19
$GPGSV,2,1,08,10,70,306,25,12,44,093,20,14,17,291,28,15,14,093,*75
$GPGSV,2,2,08,20,69,181,24,25,41,153,23,31,13,235,,32,38,308,13*71
$GLGSV,1,1,01,76,64,198,20*55
$GNGLL,,,,,034727.00,V,N*51
$GNRMC,034728.00,V,,,,,,,070120,,,N*6D
$GNVTG,,,,,,,,,N*2E
$GNGGA,034728.00,,,,,0,05,5.17,,,,,,*44
$GNGSA,A,1,20,10,25,32,,,,,,,,,6.10,5.17,3.23*1D
$GNGSA,A,1,76,,,,,,,,,,,,6.10,5.17,3.23*19
$GPGSV,2,1,08,10,70,306,24,12,44,093,22,14,17,291,28,15,14,093,*76
$GPGSV,2,2,08,20,69,181,25,25,41,153,23,31,13,235,,32,38,308,17*74
$GLGSV,1,1,01,76,64,198,20*55
$GNGLL,,,,,034728.00,V,N*5E
$GNRMC,034729.00,V,,,,,,,070120,,,N*6C
$GNVTG,,,,,,,,,N*2E
$GNGGA,034729.00,,,,,0,04,8.21,,,,,,*4C
$GNGSA,A,1,20,10,25,,,,,,,,,,13.93,8.21,11.25*1E
$GNGSA,A,1,76,,,,,,,,,,,,13.93,8.21,11.25*1B
$GPGSV,2,1,08,10,70,306,23,12,44,093,22,14,17,291,27,15,14,093,*7E
$GPGSV,2,2,08,20,69,181,24,25,41,153,22,31,13,235,,32,38,308,09*7B
$GLGSV,1,1,01,76,64,198,20*55
$GNGLL,,,,,034729.00,V,N*5F
$GNRMC,034730.00,V,,,,,,,070120,,,N*64
$GNVTG,,,,,,,,,N*2E
$GNGGA,034730.00,,,,,0,05,5.18,,,,,,*42
$GNGSA,A,1,20,10,25,32,,,,,,,,,6.10,5.18,3.24*15
$GNGSA,A,1,76,,,,,,,,,,,,6.10,5.18,3.24*11
$GPGSV,2,1,08,10,70,306,23,12,44,093,22,14,17,291,28,15,14,093,*71
$GPGSV,2,2,08,20,69,181,23,25,41,153,21,31,13,235,,32,38,308,12*75
$GLGSV,1,1,01,76,64,198,20*55
$GNGLL,,,,,034730.00,V,N*57
$GNRMC,034731.00,V,,,,,,,070120,,,N*65
$GNVTG,,,,,,,,,N*2E
$GNGGA,034731.00,,,,,0,05,5.18,,,,,,*43
$GNGSA,A,1,20,10,25,32,,,,,,,,,6.11,5.18,3.24*14
$GNGSA,A,1,76,,,,,,,,,,,,6.11,5.18,3.24*10
$GPGSV,2,1,08,10,70,306,24,12,44,093,22,14,17,291,28,15,14,093,18*7F
$GPGSV,2,2,08,20,69,181,23,25,41,153,21,31,13,235,,32,38,308,14*73
$GLGSV,1,1,01,76,64,198,19*5F
$GNGLL,,,,,034731.00,V,N*56
$GNRMC,034732.00,V,,,,,,,070120,,,N*66
$GNVTG,,,,,,,,,N*2E
$GNGGA,034732.00,,,,,0,05,5.18,,,,,,*40
$GNGSA,A,1,20,10,25,32,,,,,,,,,6.11,5.18,3.24*14
$GNGSA,A,1,76,,,,,,,,,,,,6.11,5.18,3.24*10
$GPGSV,2,1,08,10,70,306,23,12,44,093,22,14,17,291,29,15,14,093,17*76
$GPGSV,2,2,08,20,69,181,24,25,41,153,20,31,13,235,,32,38,308,14*75
$GLGSV,1,1,01,76,64,198,19*5F
$GNGLL,,,,,034732.00,V,N*55
$GNRMC,034733.00,V,,,,,,,070120,,,N*67
$GNVTG,,,,,,,,,N*2E
$GNGGA,034733.00,,,,,0,05,5.18,,,,,,*41
$GNGSA,A,1,20,10,25,32,,,,,,,,,6.11,5.18,3.24*14
$GNGSA,A,1,76,,,,,,,,,,,,6.11,5.18,3.24*10
$GPGSV,2,1,08,10,70,306,23,12,44,093,22,14,17,291,28,15,14,093,16*76
$GPGSV,2,2,08,20,69,181,24,25,41,153,21,31,13,235,,32,38,308,15*75
$GLGSV,1,1,01,76,64,198,21*54
$GNGLL,,,,,034733.00,V,N*54
$GNRMC,034734.00,V,,,,,,,070120,,,N*60
$GNVTG,,,,,,,,,N*2E
$GNGGA,034734.00,,,,,0,05,5.19,,,,,,*47
$GNGSA,A,1,20,10,25,32,,,,,,,,,6.12,5.19,3.24*16
$GNGSA,A,1,76,,,,,,,,,,,,6.12,5.19,3.24*12
$GPGSV,2,1,08,10,70,306,22,12,44,093,23,14,17,291,27,15,14,093,14*7B
$GPGSV,2,2,08,20,69,181,24,25,41,153,22,31,13,235,,32,38,308,13*70
$GLGSV,1,1,01,76,64,198,21*54
$GNGLL,,,,,034734.00,V,N*53
$GNRMC,034735.00,V,,,,,,,070120,,,N*61
$GNVTG,,,,,,,,,N*2E
$GNGGA,034735.00,,,,,0,05,5.19,,,,,,*46
$GNGSA,A,1,20,10,25,32,,,,,,,,,6.12,5.19,3.24*16
$GNGSA,A,1,76,,,,,,,,,,,,6.12,5.19,3.24*12
$GPGSV,2,1,08,10,70,306,22,12,44,093,23,14,17,291,27,15,14,093,12*7D
$GPGSV,2,2,08,20,69,181,24,25,41,153,23,31,13,235,,32,38,308,11*73
$GLGSV,1,1,01,76,64,198,22*57
$GNGLL,,,,,034735.00,V,N*52
$GNRMC,034736.00,V,,,,,,,070120,,,N*62
$GNVTG,,,,,,,,,N*2E
$GNGGA,034736.00,,,,,0,05,5.19,,,,,,*45
$GNGSA,A,1,20,10,25,32,,,,,,,,,6.12,5.19,3.24*16
$GNGSA,A,1,76,,,,,,,,,,,,6.12,5.19,3.24*12
$GPGSV,2,1,08,10,70,306,23,12,44,093,23,14,17,291,27,15,14,093,09*76
$GPGSV,2,2,08,20,69,181,24,25,41,153,24,31,13,235,,32,38,308,12*77
$GLGSV,1,1,01,76,64,198,22*57
$GNGLL,,,,,034736.00,V,N*51
$GNRMC,034737.00,V,,,,,,,070120,,,N*63
$GNVTG,,,,,,,,,N*2E
$GNGGA,034737.00,,,,,0,05,5.19,,,,,,*44
$GNGSA,A,1,20,10,25,32,,,,,,,,,6.12,5.19,3.25*17
$GNGSA,A,1,76,,,,,,,,,,,,6.12,5.19,3.25*13
$GPGSV,2,1,08,10,70,306,23,12,44,093,22,14,17,291,27,15,14,093,11*7E
$GPGSV,2,2,08,20,69,181,24,25,41,153,25,31,13,235,,32,38,308,14*70
$GLGSV,1,1,01,76,64,198,22*57
$GNGLL,,,,,034737.00,V,N*50
$GNRMC,034738.00,V,,,,,,,070120,,,N*6C
$GNVTG,,,,,,,,,N*2E
$GNGGA,034738.00,,,,,0,05,5.20,,,,,,*41
$GNGSA,A,1,20,10,25,32,,,,,,,,,6.13,5.20,3.25*1C
$GNGSA,A,1,76,,,,,,,,,,,,6.13,5.20,3.25*18
$GPGSV,2,1,08,10,70,306,23,12,44,093,23,14,17,291,27,15,14,093,12*7C
$GPGSV,2,2,08,20,69,181,24,25,41,153,24,31,13,235,,32,38,308,14*71
$GLGSV,1,1,01,76,64,198,22*57
$GNGLL,,,,,034738.00,V,N*5F
$GNRMC,034739.00,V,,,,,,,070120,,,N*6D
$GNVTG,,,,,,,,,N*2E
$GNGGA,034739.00,,,,,0,05,5.20,,,,,,*40
$GNGSA,A,1,20,10,25,32,,,,,,,,,6.13,5.20,3.25*1C
$GNGSA,A,1,76,,,,,,,,,,,,6.13,5.20,3.25*18
$GPGSV,2,1,08,10,70,306,23,12,44,093,23,14,17,291,28,15,14,093,15*74
$GPGSV,2,2,08,20,69,181,24,25,41,153,24,31,13,235,,32,38,308,15*70
$GLGSV,1,1,01,76,64,198,23*56
$GNGLL,,,,,034739.00,V,N*5E
$GNRMC,034740.00,V,,,,,,,070120,,,N*63
$GNVTG,,,,,,,,,N*2E
$GNGGA,034740.00,,,,,0,05,5.20,,,,,,*4E
$GNGSA,A,1,20,10,25,32,,,,,,,,,6.13,5.20,3.25*1C
$GNGSA,A,1,76,,,,,,,,,,,,6.13,5.20,3.25*18
$GPGSV,2,1,08,10,70,306,24,12,44,093,23,14,17,291,27,15,14,093,16*7F
$GPGSV,2,2,08,20,69,181,23,25,41,153,24,31,13,235,,32,38,308,17*75
$GLGSV,1,1,01,76,64,198,24*51
$GNGLL,,,,,034740.00,V,N*50
$GNRMC,034741.00,V,,,,,,,070120,,,N*62
$GNVTG,,,,,,,,,N*2E
$GNGGA,034741.00,,,,,0,05,5.20,,,,,,*4F
$GNGSA,A,1,20,10,25,32,,,,,,,,,6.13,5.20,3.25*1C
$GNGSA,A,1,76,,,,,,,,,,,,6.13,5.20,3.25*18
$GPGSV,2,1,08,10,70,306,25,12,44,093,23,14,17,291,27,15,14,093,16*7E
$GPGSV,2,2,08,20,69,181,22,25,41,153,25,31,13,235,,32,38,308,18*7A
$GLGSV,1,1,01,76,64,198,25*50
$GNGLL,,,,,034741.00,V,N*51
$GNRMC,034742.00,V,,,,,,,070120,,,N*61
$GNVTG,,,,,,,,,N*2E
$GNGGA,034742.00,,,,,0,05,5.20,,,,,,*4C
$GNGSA,A,1,20,10,25,32,,,,,,,,,6.14,5.20,3.25*1B
$GNGSA,A,1,76,,,,,,,,,,,,6.14,5.20,3.25*1F
$GPGSV,2,1,08,10,70,306,25,12,44,093,22,14,17,291,26,15,14,093,16*7E
$GPGSV,2,2,08,20,69,181,22,25,41,153,25,31,13,235,,32,38,308,18*7A
$GLGSV,1,1,01,76,64,198,25*50
$GNGLL,,,,,034742.00,V,N*52
$GNRMC,034743.00,V,,,,,,,070120,,,N*60
$GNVTG,,,,,,,,,N*2E
$GNGGA,034743.00,,,,,0,05,5.21,,,,,,*4C
$GNGSA,A,1,20,10,25,32,,,,,,,,,6.14,5.21,3.25*1A
$GNGSA,A,1,76,,,,,,,,,,,,6.14,5.21,3.25*1E
$GPGSV,2,1,08,10,70,306,26,12,44,093,21,14,17,291,27,15,14,093,15*7C
$GPGSV,2,2,08,20,69,181,22,25,41,153,25,31,13,235,,32,38,308,17*75
$GLGSV,1,1,01,76,64,198,25*50
$GNGLL,,,,,034743.00,V,N*53
$GNRMC,034744.00,V,,,,,,,070120,,,N*67
$GNVTG,,,,,,,,,N*2E
$GNGGA,034744.00,,,,,0,05,5.21,,,,,,*4B
$GNGSA,A,1,20,10,25,32,,,,,,,,,6.14,5.21,3.25*1A
$GNGSA,A,1,76,,,,,,,,,,,,6.14,5.21,3.25*1E
$GPGSV,2,1,08,10,70,306,26,12,44,093,21,14,17,291,27,15,14,093,14*7D
$GPGSV,2,2,08,20,69,181,21,25,41,153,26,31,13,235,,32,38,308,16*74
$GLGSV,1,1,01,76,64,198,25*50
$GNGLL,,,,,034744.00,V,N*54
$GNRMC,034745.00,V,,,,,,,070120,,,N*66
$GNVTG,,,,,,,,,N*2E
$GNGGA,034745.00,,,,,0,05,5.21,,,,,,*4A
$GNGSA,A,1,20,10,25,32,,,,,,,,,6.14,5.21,3.26*19
$GNGSA,A,1,76,,,,,,,,,,,,6.14,5.21,3.26*1D
$GPGSV,2,1,08,10,70,306,25,12,44,093,21,14,17,291,27,15,14,093,14*7E
$GPGSV,2,2,08,20,69,181,22,25,41,153,26,31,13,235,,32,38,308,14*75
$GLGSV,1,1,01,76,64,198,24*51
$GNGLL,,,,,034745.00,V,N*55
$GNRMC,034746.00,V,,,,,,,070120,,,N*65
$GNVTG,,,,,,,,,N*2E
$GNGGA,034746.00,,,,,0,05,5.21,,,,,,*49
$GNGSA,A,1,20,10,25,32,,,,,,,,,6.15,5.21,3.26*18
$GNGSA,A,1,76,,,,,,,,,,,,6.15,5.21,3.26*1C
$GPGSV,2,1,08,10,70,306,25,12,44,093,21,14,17,291,27,15,14,093,12*78
$GPGSV,2,2,08,20,69,181,22,25,41,153,25,31,13,235,,32,38,308,14*76
$GLGSV,1,1,01,76,64,198,25*50
$GNGLL,,,,,034746.00,V,N*56
$GNRMC,034747.00,V,,,,,,,070120,,,N*64
$GNVTG,,,,,,,,,N*2E
$GNGGA,034747.00,,,,,0,05,5.22,,,,,,*4B
$GNGSA,A,1,20,10,25,32,,,,,,,,,6.15,5.22,3.26*1B
$GNGSA,A,1,76,,,,,,,,,,,,6.15,5.22,3.26*1F
$GPGSV,2,1,08,10,70,306,26,12,44,093,20,14,17,291,27,15,14,094,14*7B
$GPGSV,2,2,08,20,69,181,23,25,41,153,25,31,13,235,,32,38,308,13*70
$GLGSV,1,1,01,76,64,198,25*50
$GNGLL,,,,,034747.00,V,N*57
$GNRMC,034748.00,V,,,,,,,070120,,,N*6B
$GNVTG,,,,,,,,,N*2E
$GNGGA,034748.00,,,,,0,05,5.22,,,,,,*44
$GNGSA,A,1,20,10,25,32,,,,,,,,,6.15,5.22,3.26*1B
$GNGSA,A,1,76,,,,,,,,,,,,6.15,5.22,3.26*1F
$GPGSV,2,1,08,10,70,306,26,12,44,093,18,14,17,291,27,15,14,094,14*70
$GPGSV,2,2,08,20,69,181,22,25,41,153,25,31,13,235,,32,38,308,11*73
$GLGSV,1,1,01,76,64,198,26*53
$GNGLL,,,,,034748.00,V,N*58
$GNRMC,034749.00,A,3113.90286,N,12125.45359,E,1.403,,070120,,,A*6F
$GNVTG,,T,,M,1.403,N,2.598,K,A*3D
$GNGGA,034749.00,3113.90286,N,12125.45359,E,1,05,5.22,63.6,M,9.7,M,,*4C
$GNGSA,A,3,20,10,25,32,,,,,,,,,6.16,5.22,3.26*1A
$GNGSA,A,3,76,,,,,,,,,,,,6.16,5.22,3.26*1E
$GPGSV,2,1,08,10,70,306,26,12,44,093,18,14,17,291,25,15,14,094,15*73
$GPGSV,2,2,08,20,69,181,22,25,41,153,24,31,13,235,,32,38,308,11*72
$GLGSV,1,1,01,76,64,198,26*53
$GNGLL,3113.90286,N,12125.45359,E,034749.00,A,A*74
$GNRMC,034750.00,A,3113.90242,N,12125.45386,E,1.215,,070120,,,A*6C
$GNVTG,,T,,M,1.215,N,2.250,K,A*3F
$GNGGA,034750.00,3113.90242,N,12125.45386,E,1,05,5.22,66.2,M,9.7,M,,*4F
$GNGSA,A,3,20,10,25,32,,,,,,,,,6.16,5.22,3.26*1A
$GNGSA,A,3,76,,,,,,,,,,,,6.16,5.22,3.26*1E
$GPGSV,2,1,08,10,70,306,25,12,44,093,17,14,17,291,25,15,14,094,16*7C
$GPGSV,2,2,08,20,69,181,23,25,42,152,23,31,13,235,,32,38,308,11*76
$GLGSV,1,1,01,76,64,198,26*53
$GNGLL,3113.90242,N,12125.45386,E,034750.00,A,A*76
$GNRMC,034751.00,A,3113.90250,N,12125.45474,E,1.263,,070120,,,A*65
$GNVTG,,T,,M,1.263,N,2.340,K,A*3E
$GNGGA,034751.00,3113.90250,N,12125.45474,E,1,05,5.23,68.4,M,9.7,M,,*4E
$GNGSA,A,3,20,10,25,32,,,,,,,,,6.16,5.23,3.26*1B
$GNGSA,A,3,76,,,,,,,,,,,,6.16,5.23,3.26*1F
$GPGSV,2,1,08,10,70,306,25,12,44,093,18,14,17,291,27,15,14,094,17*70
$GPGSV,2,2,08,20,69,181,23,25,42,152,22,31,13,235,,32,38,308,13*75
$GLGSV,1,1,01,76,64,198,25*50
$GNGLL,3113.90250,N,12125.45474,E,034751.00,A,A*7E
$GNRMC,034752.00,A,3113.90237,N,12125.45539,E,1.230,,070120,,,A*69
$GNVTG,,T,,M,1.230,N,2.278,K,A*32
$GNGGA,034752.00,3113.90237,N,12125.45539,E,1,05,5.23,70.4,M,9.7,M,,*4D
$GNGSA,A,3,20,10,25,32,,,,,,,,,6.16,5.23,3.26*1B
$GNGSA,A,3,76,,,,,,,,,,,,6.16,5.23,3.26*1F
$GPGSV,2,1,08,10,70,306,24,12,44,093,20,14,17,291,27,15,14,094,18*75
$GPGSV,2,2,08,20,69,181,23,25,42,152,21,31,13,235,,32,38,309,11*75
$GLGSV,1,1,01,76,64,198,25*50
$GNGLL,3113.90237,N,12125.45539,E,034752.00,A,A*74
$GNRMC,034753.00,A,3113.90247,N,12125.45708,E,1.660,,070120,,,A*6E
$GNVTG,,T,,M,1.660,N,3.074,K,A*3C
$GNGGA,034753.00,3113.90247,N,12125.45708,E,1,05,5.23,72.4,M,9.7,M,,*49
$GNGSA,A,3,20,10,25,32,,,,,,,,,6.17,5.23,3.27*1B
$GNGSA,A,3,76,,,,,,,,,,,,6.17,5.23,3.27*1F
$GPGSV,2,1,08,10,70,306,25,12,44,093,23,14,17,291,26,15,14,094,17*79
$GPGSV,2,2,08,20,69,181,24,25,42,152,22,31,13,235,,32,38,309,10*70
$GLGSV,1,1,01,76,64,198,25*50
$GNGLL,3113.90247,N,12125.45708,E,034753.00,A,A*72
$GNRMC,034754.00,A,3113.90234,N,12125.45743,E,1.574,,070120,,,A*64
$GNVTG,,T,,M,1.574,N,2.916,K,A*36
$GNGGA,034754.00,3113.90234,N,12125.45743,E,1,04,8.43,72.9,M,9.7,M,,*42
$GNGSA,A,3,20,10,25,,,,,,,,,,14.37,8.43,11.64*14
$GNGSA,A,3,76,,,,,,,,,,,,14.37,8.43,11.64*11
$GPGSV,2,1,08,10,70,306,25,12,44,093,22,14,17,291,27,15,14,094,15*7B
$GPGSV,2,2,08,20,69,181,24,25,42,152,22,31,13,235,,32,38,309,08*79
$GLGSV,1,1,01,76,64,198,25*50
$GNGLL,3113.90234,N,12125.45743,E,034754.00,A,A*7E
$GNRMC,034755.00,A,3113.89461,N,12125.44141,E,0.375,,070120,,,A*68
$GNVTG,,T,,M,0.375,N,0.695,K,A*36
$GNGGA,034755.00,3113.89461,N,12125.44141,E,1,05,4.36,59.1,M,9.7,M,,*46
$GNGSA,A,3,20,10,25,14,,,,,,,,,5.00,4.36,2.45*1A
$GNGSA,A,3,76,,,,,,,,,,,,5.00,4.36,2.45*1A
$GPGSV,2,1,08,10,70,306,24,12,44,093,22,14,17,291,26,15,14,094,16*78
$GPGSV,2,2,08,20,69,181,24,25,42,152,23,31,13,235,,32,38,309,08*78
$GLGSV,1,1,01,76,64,198,25*50
$GNGLL,3113.89461,N,12125.44141,E,034755.00,A,A*74
$GNRMC,034756.00,A,3113.89246,N,12125.43767,E,0.465,,070120,,,A*6B
$GNVTG,,T,,M,0.465,N,0.862,K,A*36
$GNGGA,034756.00,3113.89246,N,12125.43767,E,1,06,3.72,54.7,M,9.7,M,,*4C
$GNGSA,A,3,20,10,25,32,14,,,,,,,,4.42,3.72,2.39*10
$GNGSA,A,3,76,,,,,,,,,,,,4.42,3.72,2.39*11
$GPGSV,2,1,08,10,70,306,23,12,44,093,19,14,17,291,25,15,14,094,18*7A
$GPGSV,2,2,08,20,69,181,24,25,42,152,24,31,13,235,,32,38,309,11*77
$GLGSV,1,1,01,76,64,198,24*51
$GNGLL,3113.89246,N,12125.43767,E,034756.00,A,A*71
$GNRMC,034757.00,A,3113.89067,N,12125.43427,E,0.469,,070120,,,A*60
$GNVTG,,T,,M,0.469,N,0.868,K,A*30
$GNGGA,034757.00,3113.89067,N,12125.43427,E,1,06,3.72,52.2,M,9.7,M,,*48
$GNGSA,A,3,20,10,25,32,14,,,,,,,,4.42,3.72,2.39*10
$GNGSA,A,3,76,,,,,,,,,,,,4.42,3.72,2.39*11
$GPGSV,2,1,08,10,70,306,23,12,44,093,16,14,17,291,26,15,14,094,19*77
$GPGSV,2,2,08,20,69,181,24,25,42,152,25,31,13,235,,32,38,309,11*76
$GLGSV,1,1,01,76,64,198,24*51
$GNGLL,3113.89067,N,12125.43427,E,034757.00,A,A*76
$GNRMC,034758.00,A,3113.88912,N,12125.43117,E,0.458,,070120,,,A*61
$GNVTG,,T,,M,0.458,N,0.848,K,A*30
$GNGGA,034758.00,3113.88912,N,12125.43117,E,1,05,4.36,50.1,M,9.7,M,,*4E
$GNGSA,A,3,20,10,25,14,,,,,,,,,5.01,4.36,2.45*1B
$GNGSA,A,3,76,,,,,,,,,,,,5.01,4.36,2.45*1B
$GPGSV,2,1,08,10,70,306,23,12,44,093,12,14,17,291,26,15,14,094,18*72
$GPGSV,2,2,08,20,69,181,25,25,42,152,26,31,13,235,,32,38,309,13*76
$GLGSV,1,1,01,76,64,198,25*50
$GNGLL,3113.88912,N,12125.43117,E,034758.00,A,A*75
$GNRMC,034759.00,A,3113.88820,N,12125.42893,E,0.517,,070120,,,A*6E
$GNVTG,,T,,M,0.517,N,0.957,K,A*35
$GNGGA,034759.00,3113.88820,N,12125.42893,E,1,05,4.37,47.5,M,9.7,M,,*48
$GNGSA,A,3,20,10,25,14,,,,,,,,,5.01,4.37,2.45*1A
$GNGSA,A,3,76,,,,,,,,,,,,5.01,4.37,2.45*1A
$GPGSV,2,1,08,10,70,306,22,12,44,093,11,14,17,291,26,15,14,094,17*7F
$GPGSV,2,2,08,20,69,181,25,25,42,152,26,31,13,235,,32,38,309,10*75
$GLGSV,1,1,01,76,64,198,25*50
$GNGLL,3113.88820,N,12125.42893,E,034759.00,A,A*70
$GNRMC,034800.00,A,3113.88694,N,12125.42644,E,0.700,,070120,,,A*6C
$GNVTG,,T,,M,0.700,N,1.297,K,A*37
$GNGGA,034800.00,3113.88694,N,12125.42644,E,1,06,3.72,45.3,M,9.7,M,,*4F
$GNGSA,A,3,20,10,25,32,14,,,,,,,,4.43,3.72,2.39*11
$GNGSA,A,3,76,,,,,,,,,,,,4.43,3.72,2.39*10
$GPGSV,2,1,08,10,70,306,22,12,44,093,13,14,17,291,27,15,14,094,16*7D
$GPGSV,2,2,08,20,69,181,25,25,42,152,27,31,13,235,,32,38,309,12*76
$GLGSV,1,1,01,76,64,198,24*51
$GNGLL,3113.88694,N,12125.42644,E,034800.00,A,A*76
$GNRMC,034801.00,A,3113.88582,N,12125.42422,E,0.414,,070120,,,A*6D
$GNVTG,,T,,M,0.414,N,0.767,K,A*3A
$GNGGA,034801.00,3113.88582,N,12125.42422,E,1,06,3.72,44.6,M,9.7,M,,*4C
$GNGSA,A,3,20,10,25,32,14,,,,,,,,4.43,3.72,2.39*11
$GNGSA,A,3,76,,,,,,,,,,,,4.43,3.72,2.39*10
$GPGSV,2,1,08,10,70,306,22,12,44,093,16,14,17,291,27,15,14,094,13*7D
$GPGSV,2,2,08,20,69,181,25,25,42,152,27,31,13,235,,32,38,309,11*75
$GLGSV,1,1,01,76,64,198,23*56
$GNGLL,3113.88582,N,12125.42422,E,034801.00,A,A*71
$GNRMC,034802.00,A,3113.88460,N,12125.42201,E,0.391,,070120,,,A*6E
$GNVTG,,T,,M,0.391,N,0.725,K,A*36
$GNGGA,034802.00,3113.88460,N,12125.42201,E,1,06,3.72,43.7,M,9.7,M,,*43
$GNGSA,A,3,20,10,25,32,14,,,,,,,,4.43,3.72,2.39*11
$GNGSA,A,3,76,,,,,,,,,,,,4.43,3.72,2.39*10
$GPGSV,2,1,08,10,70,306,22,12,44,093,18,14,17,291,28,15,14,094,13*7C
$GPGSV,2,2,08,20,69,181,25,25,42,152,26,31,13,235,,32,38,309,12*77
$GLGSV,1,1,01,76,64,198,24*51
$GNGLL,3113.88460,N,12125.42201,E,034802.00,A,A*78
$GNRMC,034803.00,A,3113.88370,N,12125.42053,E,0.466,,070120,,,A*63
$GNVTG,,T,,M,0.466,N,0.864,K,A*33
$GNGGA,034803.00,3113.88370,N,12125.42053,E,1,06,3.72,43.9,M,9.7,M,,*4F
$GNGSA,A,3,20,10,25,32,14,,,,,,,,4.43,3.72,2.39*11
$GNGSA,A,3,76,,,,,,,,,,,,4.43,3.72,2.39*10
$GPGSV,2,1,08,10,70,306,22,12,44,093,19,14,17,291,28,15,14,094,12*7C
$GPGSV,2,2,08,20,69,181,25,25,42,152,26,31,13,235,,32,38,309,12*77
$GLGSV,1,1,01,76,64,198,24*51
$GNGLL,3113.88370,N,12125.42053,E,034803.00,A,A*7A
$GNRMC,034804.00,A,3113.88319,N,12125.41938,E,0.638,,070120,,,A*65
$GNVTG,,T,,M,0.638,N,1.181,K,A*39
$GNGGA,034804.00,3113.88319,N,12125.41938,E,1,06,3.72,43.1,M,9.7,M,,*48
$GNGSA,A,3,20,10,25,32,14,,,,,,,,4.43,3.72,2.39*11
$GNGSA,A,3,76,,,,,,,,,,,,4.43,3.72,2.39*10
$GPGSV,2,1,08,10,70,306,21,12,44,093,18,14,17,291,28,15,14,094,12*7E
$GPGSV,2,2,08,20,69,181,25,25,42,152,26,31,13,235,,32,38,309,12*77
$GLGSV,1,1,01,76,64,198,25*50
$GNGLL,3113.88319,N,12125.41938,E,034804.00,A,A*75
$GNRMC,034805.00,A,3113.88203,N,12125.41767,E,0.790,,070120,,,A*69
$GNVTG,,T,,M,0.790,N,1.463,K,A*33
$GNGGA,034805.00,3113.88203,N,12125.41767,E,1,06,3.72,43.2,M,9.7,M,,*44
$GNGSA,A,3,20,10,25,32,14,,,,,,,,4.43,3.72,2.39*11
$GNGSA,A,3,76,,,,,,,,,,,,4.43,3.72,2.39*10
$GPGSV,2,1,08,10,70,306,21,12,44,093,18,14,17,291,28,15,14,094,12*7E
$GPGSV,2,2,08,20,69,181,25,25,42,152,26,31,13,235,,32,38,309,12*77
$GLGSV,1,1,01,76,64,198,25*50
$GNGLL,3113.88203,N,12125.41767,E,034805.00,A,A*7A
$GNRMC,034806.00,A,3113.88042,N,12125.41567,E,1.397,,070120,,,A*6D
$GNVTG,,T,,M,1.397,N,2.587,K,A*39
$GNGGA,034806.00,3113.88042,N,12125.41567,E,1,06,3.72,44.3,M,9.7,M,,*44
$GNGSA,A,3,20,10,25,32,14,,,,,,,,4.43,3.72,2.39*11
$GNGSA,A,3,76,,,,,,,,,,,,4.43,3.72,2.39*10
$GPGSV,2,1,08,10,70,306,22,12,44,093,18,14,17,291,28,15,14,094,13*7C
$GPGSV,2,2,08,20,69,181,25,25,42,152,26,31,13,235,,32,38,309,12*77
$GLGSV,1,1,01,76,64,198,25*50
$GNGLL,3113.88042,N,12125.41567,E,034806.00,A,A*7C
$GNRMC,034807.00,A,3113.87937,N,12125.41413,E,1.673,157.34,070120,,,A*7F
$GNVTG,157.34,T,,M,1.673,N,3.098,K,A*26
$GNGGA,034807.00,3113.87937,N,12125.41413,E,1,06,3.72,44.5,M,9.7,M,,*45
$GNGSA,A,3,20,10,25,32,14,,,,,,,,4.43,3.72,2.39*11
$GNGSA,A,3,76,,,,,,,,,,,,4.43,3.72,2.39*10
$GPGSV,2,1,08,10,70,306,22,12,44,093,17,14,17,291,28,15,14,094,13*73
$GPGSV,2,2,08,20,69,181,24,25,42,152,26,31,13,235,,32,38,309,11*75
$GLGSV,1,1,01,76,64,198,25*50
$GNGLL,3113.87937,N,12125.41413,E,034807.00,A,A*7B
$GNRMC,034808.00,A,3113.87735,N,12125.41212,E,3.144,215.12,070120,,,A*7B
$GNVTG,215.12,T,,M,3.144,N,5.822,K,A*29
$GNGGA,034808.00,3113.87735,N,12125.41212,E,1,06,3.73,44.8,M,9.7,M,,*4D
$GNGSA,A,3,20,10,25,32,14,,,,,,,,4.43,3.73,2.39*10
$GNGSA,A,3,76,,,,,,,,,,,,4.43,3.73,2.39*11
$GPGSV,2,1,08,10,70,306,29,12,44,093,19,14,17,291,28,15,14,094,13*76
$GPGSV,2,2,08,20,69,181,23,25,42,152,30,31,13,235,,32,38,309,15*71
$GLGSV,1,1,01,76,64,198,24*51
$GNGLL,3113.87735,N,12125.41212,E,034808.00,A,A*7F
$GNRMC,034809.00,A,3113.87625,N,12125.41170,E,3.816,219.12,070120,,,A*7F
$GNVTG,219.12,T,,M,3.816,N,7.067,K,A*20
$GNGGA,034809.00,3113.87625,N,12125.41170,E,1,06,3.73,44.7,M,9.7,M,,*44
$GNGSA,A,3,20,10,25,32,14,,,,,,,,4.43,3.73,2.39*10
$GNGSA,A,3,76,,,,,,,,,,,,4.43,3.73,2.39*11
$GPGSV,2,1,08,10,70,306,27,12,44,093,30,14,17,291,25,15,14,094,13*7E
$GPGSV,2,2,08,20,69,181,23,25,42,152,29,31,13,235,,32,38,309,15*79
$GLGSV,1,1,01,76,64,198,26*53
$GNGLL,3113.87625,N,12125.41170,E,034809.00,A,A*79
$GNRMC,034810.00,A,3113.87759,N,12125.41378,E,2.740,216.81,070120,,,A*7F
$GNVTG,216.81,T,,M,2.740,N,5.074,K,A*28
$GNGGA,034810.00,3113.87759,N,12125.41378,E,1,06,3.73,41.1,M,9.7,M,,*4F
$GNGSA,A,3,20,10,25,32,14,,,,,,,,4.43,3.73,2.39*10
$GNGSA,A,3,76,,,,,,,,,,,,4.43,3.73,2.39*11
$GPGSV,2,1,08,10,70,306,26,12,44,093,29,14,17,291,24,15,14,094,11*74
$GPGSV,2,2,08,20,69,181,24,25,42,152,30,31,13,235,,32,38,309,15*76
$GLGSV,1,1,01,76,65,198,27*53
$GNGLL,3113.87759,N,12125.41378,E,034810.00,A,A*71
$GNRMC,034811.00,A,3113.87668,N,12125.41328,E,2.671,215.23,070120,,,A*70
$GNVTG,215.23,T,,M,2.671,N,4.947,K,A*28
$GNGGA,034811.00,3113.87668,N,12125.41328,E,1,06,3.73,40.6,M,9.7,M,,*4E
$GNGSA,A,3,20,10,25,32,14,,,,,,,,4.43,3.73,2.39*10
$GNGSA,A,3,76,,,,,,,,,,,,4.43,3.73,2.39*11
$GPGSV,2,1,08,10,70,306,25,12,44,093,31,14,17,291,22,15,14,094,13*7A
$GPGSV,2,2,08,20,69,181,26,25,42,152,29,31,13,235,,32,38,309,15*7C
$GLGSV,1,1,01,76,65,198,28*5C
$GNGLL,3113.87668,N,12125.41328,E,034811.00,A,A*76
$GNRMC,034812.00,A,3113.87632,N,12125.41381,E,2.869,209.82,070120,,,A*7E
$GNVTG,209.82,T,,M,2.869,N,5.314,K,A*24
$GNGGA,034812.00,3113.87632,N,12125.41381,E,1,06,3.73,39.2,M,9.7,M,,*4B
$GNGSA,A,3,20,10,25,32,14,,,,,,,,4.43,3.73,2.39*10
$GNGSA,A,3,76,,,,,,,,,,,,4.43,3.73,2.39*11
$GPGSV,2,1,08,10,70,306,24,12,44,093,26,14,17,291,20,15,14,094,13*7F
$GPGSV,2,2,08,20,69,181,26,25,42,152,29,31,13,235,20,32,38,309,15*7E
$GLGSV,1,1,01,76,65,198,28*5C
$GNGLL,3113.87632,N,12125.41381,E,034812.00,A,A*79
$GNRMC,034813.00,A,3113.87588,N,12125.41426,E,2.874,204.30,070120,,,A*7F
$GNVTG,204.30,T,,M,2.874,N,5.323,K,A*28
$GNGGA,034813.00,3113.87588,N,12125.41426,E,1,06,3.73,38.4,M,9.7,M,,*45
$GNGSA,A,3,20,10,25,32,14,,,,,,,,4.43,3.73,2.39*10
$GNGSA,A,3,76,,,,,,,,,,,,4.43,3.73,2.39*11
$GPGSV,2,1,08,10,71,306,25,12,44,093,27,14,17,291,16,15,14,094,14*7C
$GPGSV,2,2,08,20,69,181,27,25,42,152,29,31,13,235,18,32,38,309,12*73
$GLGSV,1,1,01,76,65,198,27*53
$GNGLL,3113.87588,N,12125.41426,E,034813.00,A,A*70
$GNRMC,034814.00,A,3113.87584,N,12125.41471,E,3.136,206.37,070120,,,A*7D
$GNVTG,206.37,T,,M,3.136,N,5.807,K,A*2E
$GNGGA,034814.00,3113.87584,N,12125.41471,E,1,06,3.73,34.9,M,9.7,M,,*4D
$GNGSA,A,3,20,10,25,32,14,,,,,,,,4.43,3.73,2.39*10
$GNGSA,A,3,76,,,,,,,,,,,,4.43,3.73,2.39*11
$GPGSV,2,1,08,10,71,306,26,12,44,093,26,14,17,291,13,15,14,094,14*7B
$GPGSV,2,2,08,20,69,181,27,25,42,152,28,31,13,235,16,32,38,309,07*78
$GLGSV,1,1,01,76,65,198,27*53
$GNGLL,3113.87584,N,12125.41471,E,034814.00,A,A*79
$GNRMC,034815.00,A,3113.87538,N,12125.41468,E,3.217,203.53,070120,,,A*74
$GNVTG,203.53,T,,M,3.217,N,5.958,K,A*22
$GNGGA,034815.00,3113.87538,N,12125.41468,E,1,05,5.28,34.2,M,9.7,M,,*43
$GNGSA,A,3,20,10,25,32,,,,,,,,,6.23,5.28,3.30*11
$GNGSA,A,3,76,,,,,,,,,,,,6.23,5.28,3.30*15
$GPGSV,2,1,08,10,71,306,26,12,44,092,27,14,17,291,08,15,14,094,*74
$GPGSV,2,2,08,20,69,181,26,25,42,152,28,31,13,235,15,32,38,309,10*7C
$GLGSV,1,1,01,76,65,198,27*53
$GNGLL,3113.87538,N,12125.41468,E,034815.00,A,A*77
$GNRMC,034816.00,A,3113.87435,N,12125.41427,E,3.154,201.53,070120,,,A*76
$GNVTG,201.53,T,,M,3.154,N,5.841,K,A*2D
$GNGGA,034816.00,3113.87435,N,12125.41427,E,1,05,5.29,35.0,M,9.7,M,,*45
$GNGSA,A,3,20,10,25,32,,,,,,,,,6.23,5.29,3.30*10
$GNGSA,A,3,76,,,,,,,,,,,,6.23,5.29,3.30*14
$GPGSV,2,1,08,10,71,306,25,12,44,092,28,14,17,291,08,15,14,094,*78
$GPGSV,2,2,08,20,69,181,26,25,42,152,29,31,13,235,13,32,38,309,12*79
$GLGSV,1,1,01,76,65,198,27*53
$GNGLL,3113.87435,N,12125.41427,E,034816.00,A,A*73
$GNRMC,034817.00,A,3113.87389,N,12125.41426,E,2.841,200.42,070120,,,A*7B
$GNVTG,200.42,T,,M,2.841,N,5.261,K,A*28
$GNGGA,034817.00,3113.87389,N,12125.41426,E,1,05,5.29,34.1,M,9.7,M,,*45
$GNGSA,A,3,20,10,25,32,,,,,,,,,6.23,5.29,3.30*10
